,citystate,pop,lat,lng
1,23114 VA,17449,37.411851,-76.367526
2,95467 CA,5498,39.962583,-123.814656
3,Aaronsburg PA,1217,40.876944,-77.387977
4,Abac GA,27153,31.451722,-83.498867
5,Abbeville AL,6783,31.575479,-85.279044
6,Abbeville GA,4816,31.96484,-83.306845
7,Abbeville MS,2371,34.455553,-89.568835
8,Abbeville SC,12934,34.18186,-82.378452
9,Abbot Village ME,819,45.279838,-69.52514
10,Abbotsford WI,3032,44.964057,-90.299438
11,Abbott Park IL,15407,42.318901,-87.847819
12,Abbott TX,1037,31.891642,-97.067146
13,Abbottstown PA,4053,39.888099,-76.993077
14,Abbyville KS,281,37.962597,-98.207103
15,Abell MD,431,38.249554,-76.744104
16,Aberdeen MD,21487,39.510886,-76.18054
17,Aberdeen MS,11805,33.828439,-88.538033
18,Aberdeen NC,11681,35.121641,-79.445039
19,Aberdeen OH,2385,38.670864,-83.763723
20,Aberdeen Proving MD,2112,39.472434,-76.130295
21,Aberdeen SD,30061,45.466109,-98.485642
22,Aberdeen WA,23814,46.984293,-123.79629
23,Abernathy TX,3445,33.849961,-101.861111
24,Abie NE,77,41.347901,-96.956282
25,Abilene KS,10141,38.937144,-97.20632
26,Abilene TX,123875,32.468155,-99.718208
27,Abingdon IL,3912,40.802312,-90.400898
28,Abingdon MD,29766,39.47444,-76.299726
29,Abingdon VA,16840,36.691644,-82.019989
30,Abington MA,16029,42.116715,-70.954293
31,Abiquiu NM,1096,36.176923,-106.244859
32,Abita Springs LA,7345,30.483696,-90.004072
33,Abraham WV,4430,37.697802,-81.1023
34,Abrams WI,2751,44.78693,-88.057101
35,Absaraka ND,23,47.014359,-97.388769
36,Absarokee MT,1643,45.515356,-109.469171
37,Academy SD,2495,43.40242,-98.889656
38,Acampo CA,7273,38.200413,-121.218576
39,Accident MD,2074,39.635504,-79.308467
40,Accokeek MD,9802,38.671992,-77.016217
41,Accomac VA,1831,37.71588,-75.680272
42,Accord NY,3385,41.808308,-74.235336
43,Acequia ID,12268,42.621467,-113.66699
44,Ackerly TX,592,32.609085,-101.795132
45,Ackerman MS,3916,33.351684,-89.20139
46,Ackley IA,2464,42.552722,-93.060835
47,Ackworth IA,680,41.37372,-93.376719
48,Acmar AL,10427,33.584132,-86.51557
49,Acme LA,37,31.301618,-91.821563
50,Acme PA,3738,40.104891,-79.482747
51,Acme WA,634,48.675248,-122.191391
52,Acme WY,1153,44.904789,-107.159833
53,Acra NY,780,42.330367,-74.085723
54,Acton CA,7993,34.483541,-118.195929
55,Acton IN,11617,39.660901,-85.992603
56,Acton MA,21361,42.475076,-71.448255
57,Acton ME,2429,43.549405,-70.930687
58,Acton MT,165,45.936997,-108.680975
59,Acushnet MA,10307,41.6997,-70.908652
60,Acworth GA,54373,34.075627,-84.647741
61,Ada MI,18701,42.95661,-85.480959
62,Ada OH,8460,40.770931,-83.815402
63,Ada OK,30802,34.780044,-96.69236
64,Adah PA,905,39.883101,-79.890827
65,Adair IA,1297,41.513687,-94.644363
66,Adair IL,378,40.385197,-90.503742
67,Adair OK,2884,36.411453,-95.273199
68,Adairsville GA,14781,34.359527,-84.917634
69,Adairville KY,2389,36.691385,-86.858523
70,Adamant VT,161,44.35747,-72.504649
71,Adams Center NY,2716,43.863106,-76.00415
72,Adams IN,20832,39.331223,-85.473532
73,Adams KY,238,37.991375,-82.702437
74,Adams MA,8603,42.622319,-73.117225
75,Adams Mills OH,4327,40.112941,-82.018807
76,Adams MN,1428,43.559119,-92.730494
77,Adams ND,322,48.422299,-98.086741
78,Adams NE,1466,40.457571,-96.53956
79,Adams OR,815,45.749678,-118.617582
80,Adams TN,4679,36.558174,-87.122626
81,Adams WI,3508,43.896688,-89.821869
82,Adamsburg PA,543,40.312577,-79.656469
83,Adamstown PA,1047,40.242992,-76.056542
84,Adamsville AL,7942,33.588437,-86.959727
85,Adamsville OH,1075,40.07929,-81.871847
86,Adamsville PA,314,41.506677,-80.376544
87,Adamsville TN,6145,35.25561,-88.413367
88,Addis LA,3593,30.355699,-91.261348
89,Addison AL,2415,34.205571,-87.194766
90,Addison IL,39119,41.933509,-88.0054
91,Addison ME,1272,44.583038,-67.714573
92,Addison MI,2290,42.003604,-84.312229
93,Addison NY,5475,42.09825,-77.266027
94,Addison PA,661,39.761195,-79.319334
95,Addison Township MI,4727,42.836423,-83.138089
96,Addy WA,1453,48.44769,-117.892383
97,Addyston OH,606,39.137364,-84.709602
98,Adel GA,10690,31.125143,-83.421346
99,Adel IA,6594,41.62214,-94.037965
100,Adel OR,111,42.148697,-119.883291
101,Adelaide CA,43714,35.635248,-120.670676
102,Adelanto CA,32725,34.584128,-117.424189
103,Adell WI,1901,43.615071,-88.025394
104,Adelphi MD,44487,38.993751,-76.97472
105,Adena OH,2219,40.212581,-80.881538
106,Adger AL,3121,33.434277,-87.167455
107,Adin CA,557,41.21751,-120.943193
108,Adirondack NY,306,43.716479,-73.782486
109,Adkins TX,7898,29.380542,-98.26504
110,Admire KS,262,38.639297,-96.101657
111,Adolphus KY,2588,36.677486,-86.263596
112,Adona AR,566,35.046956,-92.903325
113,Adrian GA,2910,32.563505,-82.569508
114,Adrian MI,41310,41.900516,-84.044556
115,Adrian MN,1843,43.619683,-95.927261
116,Adrian MO,3843,38.412473,-94.368336
117,Adrian ND,419,46.654218,-98.597647
118,Adrian OR,692,43.653712,-117.060193
119,Adrian PA,1014,40.904902,-79.507444
120,Adrian TX,249,35.275807,-102.69699
121,Advance Mills VA,9815,38.233871,-78.391033
122,Advance MO,3430,37.092219,-89.910614
123,Advance NC,14150,36.006496,-80.446301
124,Affton MO,49308,38.550594,-90.325304
125,Afton IA,1743,41.040146,-94.194044
126,Afton MI,937,45.363684,-84.469453
127,Afton MN,2916,44.86965,-92.823358
128,Afton NY,2805,42.241737,-75.536604
129,Afton TN,4874,36.204166,-82.746667
130,Afton TX,197,33.771837,-100.802131
131,Afton VA,4186,37.962624,-78.841046
132,Afton WY,4307,42.712829,-110.941976
133,Agar SD,153,44.839345,-100.071238
134,Agate CO,392,39.420256,-103.984575
135,Agawam MA,16769,42.070206,-72.622739
136,Agency IA,1005,40.995693,-92.316231
137,Agency MO,1417,39.666229,-94.717017
138,Agency Village SD,4963,45.664413,-97.02322
139,Agenda KS,186,39.702868,-97.426983
140,Ages Brookside KY,531,36.840734,-83.235294
141,Agness OR,105,42.574788,-124.064769
142,Agnew NE,1375,40.985331,-96.782942
143,Agnos AR,2856,36.219732,-91.610746
144,Agra KS,393,39.803701,-99.125543
145,Agra OK,1253,35.882548,-96.87794
146,Agricola MS,26964,30.866722,-88.593391
147,Agua Dulce CA,33348,34.459742,-118.488955
148,Aguanga CA,3810,33.447306,-116.799693
149,Aguilar CO,954,37.393304,-104.676926
150,Ahoskie NC,12007,36.295737,-76.996632
151,Ahsahka ID,194,46.510318,-116.371537
152,Ahwahnee CA,1909,37.407631,-119.723251
153,Aiea HI,40281,21.390795,-157.933237
154,Aiken SC,63621,33.553024,-81.719429
155,Ailey GA,2168,32.214262,-82.47619
156,Aimwell LA,117,31.761898,-91.992491
157,Ainsworth IA,1267,41.320226,-91.547173
158,Ainsworth NE,2484,42.54027,-99.861491
159,Airville PA,3083,39.821012,-76.401179
160,Aitkin MN,8931,46.479929,-93.645413
161,Akaska SD,75,45.332447,-100.118614
162,Akeley MN,1840,47.000987,-94.72343
163,Akhiok AK,12899,57.781967,-152.500169
164,Akiachak AK,627,60.891854,-161.39233
165,Akiak AK,346,60.890632,-161.199325
166,Akron CO,2558,40.180315,-103.225885
167,Akron IA,2432,42.835392,-96.52245
168,Akron IN,3360,41.038921,-86.039471
169,Akron MI,1368,43.584373,-83.539262
170,Akron NY,9464,43.024944,-78.508365
171,Akron OH,238171,41.044852,-81.520048
172,Akron PA,4307,40.157086,-76.205295
173,Akutan AK,1027,54.143012,-165.785368
174,Aladdin WY,243,44.747331,-104.19314
175,Alakanuk AK,677,62.746967,-164.60228
176,Alameda NM,61623,35.195612,-106.659138
177,Alamo CA,14889,37.853695,-122.022868
178,Alamo GA,4371,32.13298,-82.794445
179,Alamo Heights TX,39197,29.488623,-98.455774
180,Alamo NM,2999,34.241178,-107.340647
181,Alamo NV,1224,37.325866,-115.308032
182,Alamo TN,4719,35.801697,-89.176465
183,Alamo TX,33722,26.190578,-98.116445
184,Alamogordo NM,35776,32.893186,-105.948544
185,Alamosa CO,14675,37.470274,-105.878602
186,Alamota KS,1416,38.474588,-100.458023
187,Alanson MI,4585,45.440545,-84.792421
188,Alapaha GA,2178,31.394027,-83.21321
189,Alba TX,4334,32.765235,-95.597102
190,Albany CA,19615,37.890045,-122.295394
191,Albany GA,45851,31.567783,-84.161923
192,Albany IL,1232,41.765874,-90.208051
193,Albany IN,4134,40.292049,-85.257987
194,Albany KY,10216,36.68569,-85.140677
195,Albany LA,5266,30.514872,-90.596415
196,Albany MN,5157,45.615114,-94.574022
197,Albany MO,2388,40.251282,-94.326977
198,Albany NY,76301,42.641314,-73.764071
199,Albany OH,5541,39.209664,-82.217727
200,Albany OR,24928,44.627722,-123.094409
201,Albany TX,2532,32.719005,-99.319581
202,Albany VT,662,44.734427,-72.34181
203,Albany WI,2421,42.715535,-89.435695
204,Albee SD,505,45.022142,-96.562366
205,Albemarle NC,26760,35.357276,-80.204363
206,Alberene VA,1578,37.961992,-78.695414
207,Albers IL,1872,38.531955,-89.620151
208,Albert City IA,1116,42.778403,-94.98238
209,Albert KS,318,38.475758,-98.980714
210,Albert Lea MN,21228,43.653678,-93.370672
211,Albert NM,158,35.715938,-103.746132
212,Albert TX,654,30.224921,-98.655468
213,Alberta AL,784,32.144889,-87.342503
214,Alberta MN,251,45.557086,-96.049772
215,Alberta VA,1597,36.880609,-77.905518
216,Alberton MT,1361,46.98061,-114.492139
217,Albertson NC,2737,35.117647,-77.851517
218,Albertson NY,7406,40.77032,-73.651419
219,Albertville AL,20826,34.273859,-86.206447
220,Albertville MN,10535,45.253425,-93.646899
221,Albia IA,5976,41.028718,-92.794619
222,Albin WY,401,41.434237,-104.150542
223,Albion CA,950,39.215934,-123.721366
224,Albion IA,730,42.11427,-92.98821
225,Albion IL,3412,38.374003,-88.063557
226,Albion IN,7979,41.348217,-85.414183
227,Albion ME,2041,44.535527,-69.468286
228,Albion MI,14224,42.258073,-84.756052
229,Albion NE,2967,41.704947,-97.999116
230,Albion NY,14491,43.239827,-78.206846
231,Alborn MN,500,46.978229,-92.557937
232,Albright WV,1836,39.570116,-79.635811
233,Albrightsville PA,8258,40.974786,-75.584206
234,Albuquerque NM,579726,35.081831,-106.648171
235,Alburg VT,1998,44.968454,-73.280963
236,Alburnett IA,1152,42.158322,-91.639245
237,Alburtis PA,5450,40.486201,-75.62113
238,Alcalde KY,17592,37.073853,-84.604362
239,Alcester SD,1672,43.004726,-96.633243
240,Alcoa TN,6817,35.78522,-83.980895
241,Alcolu SC,2148,33.768402,-80.178782
242,Alcova WY,210,42.568383,-106.610199
243,Alcove NY,60,42.453818,-74.034721
244,Alda NE,1109,40.856923,-98.455135
245,Alden AL,2382,33.63356,-86.948221
246,Alden IA,1676,42.51789,-93.384123
247,Alden KS,234,38.234303,-98.311202
248,Alden Manor NY,41356,40.699615,-73.705751
249,Alden MI,1121,44.877887,-85.2241
250,Alden MN,1613,43.646586,-93.582307
251,Alden NY,12704,42.89839,-78.525707
252,Alder Creek NY,98,43.415659,-75.213748
253,Aldrich MN,235,46.402538,-94.992017
254,Aldrich MO,812,37.505667,-93.557642
255,Aledo IL,5627,41.20078,-90.741629
256,Aledo TX,13602,32.700351,-97.603885
257,Aleknagik AK,221,59.269688,-158.619882
258,Aleppo PA,290,39.824647,-80.457918
259,Alex OK,1062,34.961202,-97.75709
260,Alexander AR,14134,34.631266,-92.472673
261,Alexander IA,377,42.811395,-93.445
262,Alexander KS,93,38.456996,-99.537828
263,Alexander Mills NC,21055,35.301753,-81.864247
264,Alexander NC,3635,35.706394,-82.631134
265,Alexander NY,1986,42.915851,-78.25889
266,Alexander WV,2583,38.851145,-80.274339
267,Alexandria AL,4603,33.780785,-85.892447
268,Alexandria IN,10459,40.256081,-85.668148
269,Alexandria KY,16412,38.940605,-84.394329
270,Alexandria LA,58923,31.288519,-92.463349
271,Alexandria MN,23961,45.881747,-95.381994
272,Alexandria MO,639,40.344514,-91.515437
273,Alexandria NE,289,40.261446,-97.403855
274,Alexandria OH,2400,40.105965,-82.607683
275,Alexandria TN,2292,36.071147,-86.037171
276,Alexandria VA,165214,38.820042,-77.058901
277,Alexis IL,1321,41.052146,-90.543576
278,Alexis NC,1130,35.383613,-81.102204
279,Alford FL,2144,30.714106,-85.34838
280,Alfred ME,7351,43.487503,-70.696087
281,Alfred NY,4135,42.255165,-77.79295
282,Alfred Station NY,1174,42.255799,-77.778084
283,Alger MI,3083,44.139488,-84.18719
284,Alger OH,1943,40.705967,-83.825011
285,Algodones NM,3684,35.428527,-106.616589
286,Algoma WI,5345,44.610051,-87.457792
287,Algoma WV,1686,37.395262,-81.415839
288,Algona IA,7137,43.065976,-94.230638
289,Algona WA,31911,47.316339,-122.270057
290,Algood TN,36687,36.174261,-85.49531
291,Alhambra CA,83057,34.091436,-118.129288
292,Alhambra IL,1752,38.882211,-89.744123
293,Alice TX,28710,27.743171,-98.083622
294,Aliceville AL,4972,33.122813,-88.166689
295,Alicia AR,498,35.942327,-91.081003
296,Aline OK,510,36.505621,-98.457387
297,Aliso Viejo CA,49046,33.572367,-117.708906
298,Alkabo ND,371,48.613946,-103.929128
299,Alkol WV,1130,38.160884,-81.983972
300,Allakaket AK,208,66.543197,-152.712155
301,Allardt TN,901,36.374889,-84.850784
302,Alledonia OH,202,39.905271,-80.957753
303,Allegan MI,17374,42.525609,-85.86608
304,Allegany NY,6356,42.091827,-78.499883
305,Alleghany CA,86,39.512698,-120.727176
306,Alleghany VA,14329,37.784203,-80.003176
307,Allegheny PA,27895,40.468873,-80.013128
308,Alleman IA,474,41.815886,-93.606305
309,Allen IL,907,40.294466,-89.625029
310,Allen KY,755,37.566182,-82.636272
311,Allen MI,1284,41.926419,-84.760782
312,Allen NE,830,42.443667,-96.8574
313,Allen OK,2170,34.850176,-96.558462
314,Allen Park MI,28200,42.25223,-83.212001
315,Allen SD,872,43.290818,-101.932858
316,Allen TX,63140,33.093383,-96.645433
317,Allendale IL,985,38.523236,-87.721901
318,Allendale MI,20735,42.971066,-85.924913
319,Allendale NJ,6494,41.032654,-74.134185
320,Allendale SC,4990,33.007676,-81.320254
321,Allenhurst GA,4591,31.774059,-81.618577
322,Allenhurst NJ,1533,40.236675,-74.006706
323,Allenport PA,470,40.089845,-79.854194
324,Allenspark CO,420,40.226775,-105.520064
325,Allenstown NH,11437,43.147554,-71.439663
326,Allensville KY,657,36.694744,-87.024442
327,Allensville OH,6047,39.255326,-82.490699
328,Allensville PA,784,40.524921,-77.829396
329,Allenton WI,2299,43.468065,-88.353901
330,Allentown GA,112,32.653829,-83.189796
331,Allentown NJ,6582,40.158922,-74.59093
332,Allentown PA,142248,40.602729,-75.470955
333,Allenwood PA,4683,41.126424,-76.972362
334,Allerton IA,878,40.702301,-93.37239
335,Allerton IL,361,39.918818,-87.931235
336,Alleyton TX,978,29.745286,-96.46312
337,Alliance NE,10125,42.114943,-102.888045
338,Alliance OH,35294,40.915842,-81.118193
339,Alligator MS,597,34.129425,-90.738214
340,Allison IA,1603,42.761465,-92.782952
341,Allison PA,551,39.982566,-79.875675
342,Allison Park PA,24292,40.569975,-79.966512
343,Allisonia VA,1931,36.997815,-80.638173
344,Allons TN,1613,36.497002,-85.319744
345,Allouez WI,22742,44.485313,-88.016868
346,Allport PA,318,40.975039,-78.21038
347,Allred TN,22,36.366838,-85.176084
348,Allston MA,21503,42.353519,-71.132866
349,Allyn WA,3232,47.385004,-122.853571
350,Alma AR,13787,35.500043,-94.207337
351,Alma Center WI,1307,44.445218,-90.935602
352,Alma GA,9848,31.546525,-82.4633
353,Alma IL,961,38.723089,-88.915695
354,Alma KS,1721,39.009206,-96.292323
355,Alma MI,12923,43.380877,-84.663484
356,Alma MO,656,39.10484,-93.542853
357,Alma NE,1446,40.118853,-99.360073
358,Alma NY,183,42.016859,-78.040012
359,Alma WI,1624,44.429437,-91.807931
360,Almena KS,599,39.889071,-99.704177
361,Almena WI,1471,45.419507,-92.002691
362,Almeria NE,417,41.822859,-99.415404
363,Almira WA,497,47.763175,-118.91225
364,Almo KY,2330,36.712805,-88.308666
365,Almond NC,366,35.3295,-83.578406
366,Almond NY,1479,42.316036,-77.777965
367,Almond WI,2181,44.289832,-89.358364
368,Almont CO,275,38.64997,-106.627099
369,Almont MI,6070,42.926007,-83.036221
370,Almont ND,264,46.704605,-101.522126
371,Almyra AR,746,34.41459,-91.430992
372,Aloha OR,129990,45.517675,-122.859209
373,Aloma FL,46914,28.60779,-81.302112
374,Alorton IL,8750,38.58734,-90.12829
375,Alpena AR,1696,36.299768,-93.2792
376,Alpena MI,22701,45.079018,-83.4602
377,Alpena SD,516,44.170907,-98.396191
378,Alpha IL,1075,41.193029,-90.382081
379,Alpha KY,130,36.779735,-85.092405
380,Alpha MN,420,43.594594,-94.905088
381,Alpha NJ,29840,40.692819,-75.1741
382,Alpine AL,4546,33.331165,-86.208934
383,Alpine AZ,464,33.827878,-109.12829
384,Alpine CA,17403,32.828161,-116.754328
385,Alpine NJ,1849,40.951097,-73.930842
386,Alpine NY,1100,42.351014,-76.734775
387,Alpine TN,560,36.380324,-85.152153
388,Alpine TX,7682,30.263111,-103.654089
389,Alpine UT,9818,40.461591,-111.768861
390,Alplaus NY,497,42.857329,-73.900188
391,Alsea OR,1126,44.369068,-123.60892
392,Alstead NH,2654,43.126484,-72.328052
393,Alta CA,983,39.228032,-120.773165
394,Alta IA,2741,42.677118,-95.3129
395,Alta Loma CA,63716,34.133922,-117.599149
396,Alta Loma TX,13731,29.371854,-95.089429
397,Alta UT,29525,40.560245,-111.82736
398,Alta Vista IA,625,43.148159,-92.423682
399,Alta Vista KS,848,38.86357,-96.479983
400,Altadena CA,36126,34.191187,-118.13919
401,Altamont IL,4430,39.063449,-88.748092
402,Altamont KS,1535,37.187298,-95.298302
403,Altamont MO,466,39.905017,-94.128155
404,Altamont NY,7164,42.70627,-74.019339
405,Altamont SD,2072,44.763703,-96.700541
406,Altamont TN,1429,35.425776,-85.763508
407,Altamont UT,725,40.370225,-110.446356
408,Altamonte Spring FL,21577,28.662728,-81.371908
409,Altavista VA,5693,37.122162,-79.291145
410,Altha FL,4497,30.531882,-85.17043
411,Altheimer AR,1311,34.306168,-91.828916
412,Altmar NY,1610,43.497022,-75.971934
413,Alto GA,8291,34.459079,-83.601996
414,Alto LA,12757,32.468938,-91.7643
415,Alto MI,7585,42.824312,-85.425554
416,Alto Pass IL,677,37.568142,-89.317179
417,Alton Bay NH,1538,43.484468,-71.24888
418,Alton IA,1700,42.978175,-96.017268
419,Alton IL,32704,38.908651,-90.156806
420,Alton KS,270,39.451422,-98.953875
421,Alton NH,3716,43.46302,-71.229709
422,Alton TX,75221,26.24153,-98.342647
423,Alton UT,131,37.469905,-112.548389
424,Alton VA,2450,36.589352,-79.020237
425,Altona IL,854,41.112828,-90.159826
426,Altona NY,2148,44.881584,-73.640767
427,Altonah UT,302,40.441894,-110.438499
428,Altoona FL,2705,29.021935,-81.632322
429,Altoona IA,16136,41.647549,-93.472415
430,Altoona KS,746,37.519669,-95.64833
431,Altoona PA,63424,40.520945,-78.408901
432,Altoona WI,7039,44.802142,-91.43825
433,Altura MN,1423,44.136114,-91.974474
434,Alturas CA,5490,41.476742,-120.545584
435,Altus AR,2048,35.404873,-93.811494
436,Altus OK,21636,34.648406,-99.320483
437,Alum Bank PA,1872,40.185833,-78.620591
438,Alum Bridge WV,354,39.042474,-80.688196
439,Alum Creek WV,2782,38.285814,-81.786258
440,Alum Ridge VA,7215,36.919523,-80.319054
441,Alva FL,4947,26.714657,-81.635055
442,Alva OK,6846,36.801564,-98.672162
443,Alvada OH,1032,41.046284,-83.376982
444,Alvarado MN,490,48.201968,-96.991457
445,Alvarado TX,19759,32.439499,-97.212971
446,Alvaton GA,1974,33.149902,-84.580576
447,Alvaton KY,4368,36.86296,-86.363213
448,Alverton PA,474,40.127866,-79.558608
449,Alvin IL,703,40.3007,-87.608003
450,Alvin SC,7337,33.405953,-79.937635
451,Alvin TX,46627,29.41195,-95.251535
452,Alvin WI,470,45.921841,-88.695308
453,Alviso CA,2077,37.427659,-121.968597
454,Alvo NE,330,40.899185,-96.403557
455,Alvord IA,462,43.320109,-96.290994
456,Alvord TX,3156,33.36982,-97.688488
457,Alvordton OH,788,41.662489,-84.435533
458,Alzada MT,159,45.156244,-104.261747
459,Ama LA,1316,29.943494,-90.292509
460,Amado AZ,2672,31.594194,-111.039693
461,Amagon AR,248,35.561559,-91.079636
462,Amana IA,1932,41.831284,-91.88545
463,Amanda OH,4512,39.625104,-82.755236
464,Amanda Park WA,398,47.470579,-123.907375
465,Amargosa Valley NV,1456,36.944007,-116.57755
466,Amarillo TX,220574,35.203238,-101.842052
467,Amawalk NY,1219,41.294618,-73.761079
468,Amazonia MO,952,39.909197,-94.911344
469,Amber OK,857,35.137691,-97.764566
470,Amberg WI,875,45.498878,-87.964256
471,Ambia IN,491,40.479328,-87.479554
472,Ambler AK,259,67.46951,-156.455652
473,Amboy CA,17,34.599012,-115.774907
474,Amboy IL,3970,41.704181,-89.34716
475,Amboy IN,1439,40.610505,-85.949726
476,Amboy MN,1129,43.890326,-94.177353
477,Amboy WA,2982,45.9195,-122.457418
478,Amboy WV,1077,39.304719,-79.571088
479,Ambrose GA,2248,31.536712,-82.997637
480,Ambrose ND,80,48.817195,-103.700676
481,Amelia Court Hou VA,10439,37.35017,-77.955177
482,Amelia Island FL,31008,30.635388,-81.468829
483,Amelia LA,109,29.66046,-91.111105
484,Amelia NE,141,42.18088,-99.008036
485,Amelia OH,22680,39.021138,-84.211174
486,Amenia ND,266,47.019395,-97.204808
487,Amenia NY,2457,41.844695,-73.554158
488,American Canyon CA,29876,38.148345,-122.249333
489,American Falls ID,6374,42.789876,-112.870714
490,American Fork UT,42384,40.392784,-111.794107
491,Americus KS,1360,38.509803,-96.260753
492,Ames IA,29359,42.029859,-93.639398
493,Ames NE,517,41.461253,-96.646344
494,Ames NY,3784,42.88239,-74.583522
495,Ames OK,501,36.242293,-98.181989
496,Ames TX,15949,30.072794,-94.763819
497,Amesbury MA,16283,42.855879,-70.936681
498,Amesville OH,1115,39.408641,-81.964976
499,Amherst CO,154,40.682386,-102.170567
500,Amherst Junction WI,1515,44.506458,-89.303754
501,Amherst NE,785,40.849494,-99.260949
502,Amherst NH,11247,42.856944,-71.607536
503,Amherst NY,50124,42.967232,-78.799849
504,Amherst SD,88,45.707426,-97.930078
505,Amherst TX,971,33.997608,-102.441614
506,Amherst VA,10576,37.602677,-79.050572
507,Amherst WI,3469,44.423052,-89.303482
508,Amidon ND,132,46.455951,-103.264741
509,Amigo WV,154,37.59211,-81.349145
510,Amistad NM,129,35.898276,-103.212954
511,Amite LA,13797,30.718208,-90.570493
512,Amity AR,3652,34.259362,-93.420551
513,Amity MO,337,39.883697,-94.513558
514,Amity OR,3794,45.115704,-123.174402
515,Amity PA,1391,40.061786,-80.194865
516,Amityville NY,27109,40.684197,-73.417106
517,Amlin OH,2262,40.07203,-83.179157
518,Amma WV,264,38.545518,-81.253182
519,Ammon ID,37966,43.517679,-111.990626
520,Ammon VA,1051,37.139672,-77.737189
521,Amoret MO,525,38.260508,-94.573423
522,Amorita OK,83,36.941221,-98.245821
523,Amory MS,12528,33.9844,-88.470917
524,Ampthill VA,42989,37.453158,-77.469798
525,Amsterdam MO,665,38.395385,-94.576282
526,Amsterdam OH,2208,40.473131,-80.959554
527,Amston CT,4083,41.628969,-72.364601
528,Anabel MO,334,39.736793,-92.351142
529,Anacoco LA,4584,31.221762,-93.358949
530,Anaconda MT,8933,46.129863,-112.97388
531,Anacortes WA,20429,48.500438,-122.630873
532,Anadarko OK,9541,35.072808,-98.24291
533,Anaheim CA,354475,33.842679,-117.954035
534,Anaktuvuk Pass AK,324,68.11878,-151.679005
535,Anamoose ND,469,47.870307,-100.252941
536,Anamosa IA,8682,42.107763,-91.285115
537,Anatone WA,273,46.128466,-117.088316
538,Anchor IL,236,40.544091,-88.526581
539,Anchorage AK,240361,61.211571,-149.876077
540,Anchorage KY,22011,38.253688,-85.561151
541,Anco KY,397,37.233926,-83.032125
542,Ancona IL,232,41.055118,-88.766039
543,Ancram NY,1164,42.085093,-73.642368
544,Ancramdale NY,775,42.038103,-73.58187
545,Andale KS,1676,37.782686,-97.640712
546,Andalusia AL,10673,31.297142,-86.490468
547,Andalusia IL,1284,41.435324,-90.728385
548,Anderson AK,226,64.300693,-149.1718
549,Anderson AL,2252,34.951777,-87.272327
550,Anderson CA,22841,40.457432,-122.328218
551,Anderson IN,73285,40.114577,-85.725305
552,Anderson Island WA,1037,47.15872,-122.696025
553,Anderson MO,5879,36.669224,-94.476648
554,Anderson OH,49311,39.080861,-84.378727
555,Anderson SC,81249,34.526051,-82.630436
556,Anderson TX,2534,30.544291,-96.001822
557,Andersonville GA,867,32.129907,-84.10101
558,Andersonville TN,4559,36.191514,-84.054399
559,Andes NY,1162,42.156925,-74.788726
560,Andice TX,23727,30.659364,-97.700939
561,Andover CT,3297,41.733215,-72.376719
562,Andover IA,108,41.992552,-90.238584
563,Andover KS,13764,37.698531,-97.117901
564,Andover MA,33201,42.64956,-71.156481
565,Andover ME,640,44.663703,-70.79666
566,Andover NH,2159,43.428668,-71.782952
567,Andover NJ,9193,40.961386,-74.752418
568,Andover NY,2269,42.157454,-77.792008
569,Andover OH,4676,41.622488,-80.575374
570,Andover SD,235,45.422171,-97.917497
571,Andreas PA,1304,40.746457,-75.834247
572,Andrew IA,434,42.158496,-90.60035
573,Andrew IL,7648,39.772842,-89.663991
574,Andrews IN,2304,40.861792,-85.606726
575,Andrews NC,5354,35.195948,-83.822836
576,Andrews SC,11060,33.452525,-79.560438
577,Andrews TX,14786,32.320125,-102.540926
578,Aneta ND,474,47.699262,-97.981406
579,Angela MT,31,46.771929,-106.315732
580,Angelica NY,1535,42.326339,-77.994671
581,Angels Camp CA,5292,38.064011,-120.55437
582,Angelus Oaks CA,535,34.153149,-116.948482
583,Angie LA,6342,30.922406,-89.856714
584,Angier NC,17571,35.489725,-78.724931
585,Angle Inlet MN,96,49.324924,-95.090248
586,Angleton TX,30309,29.181049,-95.446661
587,Angola IN,18029,41.656321,-85.019803
588,Angola LA,479,30.96562,-91.597948
589,Angola NY,9858,42.636581,-79.049651
590,Angoon AK,479,57.569832,-134.371052
591,Angora MN,701,47.757738,-92.641332
592,Angora NE,59,41.893434,-103.085019
593,Anguilla MS,1230,33.01213,-90.809535
594,Angwin CA,3661,38.576906,-122.447732
595,Animas NM,882,31.793696,-108.585695
596,Anita IA,1407,41.449973,-94.779401
597,Anita PA,412,41.001806,-78.966637
598,Aniwa WI,1068,45.01039,-89.268254
599,Ankeny IA,21595,41.72755,-93.602175
600,Ann Arbor MI,158345,42.279379,-83.783998
601,Anna IL,7276,37.466777,-89.220684
602,Anna OH,4280,40.405105,-84.210344
603,Anna TX,11831,33.344516,-96.563862
604,Annada MO,125,39.255758,-90.822355
605,Annandale MN,7107,45.248272,-94.106072
606,Annandale NJ,8551,40.628731,-74.885512
607,Annandale VA,55990,38.830699,-77.214245
608,Annapolis CA,401,38.714485,-123.314214
609,Annapolis IL,421,39.117857,-87.802875
610,Annapolis Juncti MD,2,39.130983,-76.798068
611,Annapolis MD,30269,38.952394,-76.49103
612,Annapolis MO,1619,37.39809,-90.670235
613,Annawan IL,1258,41.398022,-89.912949
614,Anniston AL,31583,33.653896,-85.838152
615,Annona TX,808,33.553519,-94.899226
616,Annville PA,11720,40.345608,-76.544676
617,Ansley NE,911,41.30193,-99.36452
618,Anson ME,2136,44.783107,-69.930856
619,Anson TX,3528,32.748894,-99.895301
620,Ansonia CT,19237,41.342712,-73.074211
621,Ansonia OH,2223,40.215064,-84.640642
622,Ansted WV,1902,38.13686,-81.095487
623,Antelope KS,456,38.481037,-96.96123
624,Antelope MT,125,48.696813,-104.452883
625,Antelope OR,229,44.889196,-120.791384
626,Anthon IA,1033,42.386967,-95.894765
627,Anthony FL,4109,29.304785,-82.126157
628,Anthony KS,2626,37.151206,-98.028499
629,Anthony TX,7142,31.990718,-106.597625
630,Anthony WV,1518,37.90361,-80.364692
631,Antigo WI,13238,45.131362,-89.141871
632,Antimony UT,201,38.1015,-111.993029
633,Antioch CA,62439,37.993917,-121.808906
634,Antioch IL,24299,42.464811,-88.117802
635,Antioch OH,5110,39.753063,-81.10336
636,Antioch TN,78406,36.059517,-86.659151
637,Antler ND,211,48.958525,-101.333758
638,Antlers OK,6048,34.234923,-95.625412
639,Antoine AR,129,34.028296,-93.437169
640,Anton Chico NM,753,35.159262,-105.141041
641,Anton CO,154,39.686527,-103.434296
642,Anton TX,1571,33.804278,-102.165165
643,Antonia MO,26431,38.392733,-90.431134
644,Antonino KS,23797,38.878046,-99.320134
645,Antonito CO,2267,37.085473,-106.037946
646,Antrim NH,2692,43.059547,-71.938698
647,Antwerp NY,1719,44.235775,-75.600484
648,Antwerp OH,3530,41.188736,-84.744796
649,Anvik AK,85,62.830913,-160.130441
650,Anza CA,4734,33.568812,-116.71355
651,Apache OK,3718,34.903376,-98.369483
652,Apalachicola FL,3858,29.725465,-85.006264
653,Apalachin NY,8153,42.055579,-76.15194
654,Apex NC,30831,35.722504,-78.840816
655,Apison TN,3730,35.014926,-85.016404
656,Aplington IA,1850,42.587039,-92.875141
657,Apollo Beach FL,14117,27.771553,-82.410199
658,Apollo PA,13933,40.556481,-79.577158
659,Apopka FL,41769,28.711976,-81.513615
660,Appam ND,213,48.585803,-103.422154
661,Apple Creek OH,7819,40.755118,-81.809256
662,Apple Grove WV,1034,38.713066,-82.172556
663,Apple River IL,1179,42.471432,-90.120145
664,Apple Springs TX,1070,31.226923,-94.981152
665,Apple Valley CA,77467,34.529081,-117.2132
666,Apple Valley MN,49084,44.746147,-93.20776
667,Appleby TX,14910,31.618534,-94.651093
668,Applegate CA,897,38.995487,-120.990511
669,Applegate MI,1439,43.361899,-82.647865
670,Applegate OR,6916,42.254894,-123.028098
671,Appleton City MO,1859,38.184779,-94.0229
672,Appleton MN,2066,45.20543,-95.994872
673,Appleton NY,1467,43.310535,-78.637217
674,Appleton WA,200,45.909041,-121.148618
675,Appleton WI,99004,44.277325,-88.397649
676,Appling GA,6321,33.627088,-82.285631
677,Appomattox VA,9213,37.352951,-78.822445
678,Aptos CA,23974,36.978477,-121.891979
679,Aquasco MD,919,38.582496,-76.714947
680,Aquilla TX,1015,31.858882,-97.22577
681,Arab AL,16778,34.328339,-86.489638
682,Arabi GA,1263,31.862923,-83.72856
683,Arabi LA,3635,29.961154,-89.996497
684,Aragon GA,4708,34.066556,-85.069559
685,Aragon NM,161,33.88592,-108.546589
686,Aransas Pass TX,11949,27.909498,-97.159091
687,Arapaho OK,1194,35.578864,-98.959508
688,Arapahoe CO,238,38.841716,-102.19401
689,Arapahoe NC,1502,35.0055,-76.814909
690,Arapahoe NE,1336,40.302662,-99.899697
691,Arapahoe WY,423,42.967936,-108.494134
692,Ararat NC,2162,36.386932,-80.608887
693,Ararat VA,2715,36.613946,-80.50934
694,Arbela MO,513,40.486299,-92.004741
695,Arboles CO,270,37.101633,-107.390749
696,Arbon ID,137,42.502634,-112.558481
697,Arbovale WV,590,38.454575,-79.793403
698,Arbuckle CA,4685,39.013787,-122.027405
699,Arbuckle WV,3535,38.753046,-81.909244
700,Arbyrd MO,970,36.050104,-90.228355
701,Arcade NY,5672,42.562995,-78.413418
702,Arcadia CA,65810,34.132389,-118.026374
703,Arcadia IA,761,42.057279,-95.03714
704,Arcadia IL,26992,39.729269,-90.236238
705,Arcadia IN,3308,40.17758,-86.040882
706,Arcadia KS,610,37.634113,-94.654782
707,Arcadia LA,4531,32.555643,-92.924529
708,Arcadia MI,680,44.523157,-86.206057
709,Arcadia MO,1228,37.570054,-90.592768
710,Arcadia NE,596,41.429305,-99.120468
711,Arcadia OH,1202,41.111562,-83.50195
712,Arcadia OK,2178,35.6543,-97.324289
713,Arcadia TX,5315,29.380259,-95.129003
714,Arcadia WI,5152,44.253937,-91.480453
715,Archbold OH,6933,41.533255,-84.304833
716,Archdale NC,21414,35.910757,-79.961764
717,Archer FL,7732,29.559738,-82.51084
718,Archer IA,282,43.117917,-95.741656
719,Archer NE,180,41.178156,-98.118151
720,Archie MO,2271,38.498612,-94.362992
721,Arco ID,1644,43.635521,-113.317559
722,Arco MN,238,44.409147,-96.199913
723,Arcola IL,4463,39.687001,-88.303679
724,Arcola MO,206,37.531254,-93.858718
725,Arctic Village AK,152,68.077395,-145.423115
726,Ardara PA,387,40.362993,-79.733533
727,Arden NC,18821,35.463666,-82.535372
728,Ardmore AL,5146,34.980447,-86.834612
729,Ardmore PA,12519,40.001971,-75.29665
730,Ardmore TN,3184,35.057445,-86.879555
731,Ardsley NY,5487,41.011332,-73.841311
732,Aredale IA,168,42.854852,-92.97688
733,Arena WI,1947,43.152111,-89.938614
734,Arenzville IL,1067,39.897927,-90.363595
735,Argillite KY,1852,38.432228,-82.809442
736,Argo IL,11626,41.784245,-87.807468
737,Argo KY,1073,37.530336,-82.073522
738,Argonia KS,827,37.283966,-97.755678
739,Argonne IL,22919,41.695076,-88.023558
740,Argos IN,3856,41.230827,-86.250573
741,Argus CA,1818,35.760817,-117.382992
742,Argusville ND,854,47.10664,-96.905764
743,Argyle IA,594,40.565658,-91.563896
744,Argyle MN,1022,48.331418,-96.867096
745,Argyle MO,414,38.298619,-92.015456
746,Argyle NY,3528,43.238084,-73.464076
747,Argyle TX,18419,33.106244,-97.159977
748,Argyle WI,2084,42.695532,-89.859834
749,Ariel WA,1017,45.995154,-122.46769
750,Arimo ID,671,42.559953,-112.174649
751,Arion IA,233,41.950406,-95.46233
752,Ariton AL,2770,31.582996,-85.707716
753,Arjay KY,1239,36.828342,-83.641537
754,Arkadelphia AR,15637,34.11525,-93.068989
755,Arkansas City AR,405,33.614328,-91.232529
756,Arkansas City KS,16535,37.067593,-97.035658
757,Arkansaw WI,1373,44.626659,-92.056646
758,Arkdale WI,1826,44.052886,-89.896215
759,Arkoma OK,1992,35.343352,-94.440311
760,Arkport NY,3076,42.422466,-77.691778
761,Arkville NY,823,42.082262,-74.554453
762,Arlee MT,2377,47.186035,-114.075978
763,Arleta CA,103689,34.258081,-118.420692
764,Arley AL,3597,34.063234,-87.182761
765,Arlington AL,472,32.066784,-87.559691
766,Arlington AZ,752,33.313317,-112.789058
767,Arlington CO,14,38.40677,-103.369741
768,Arlington Height IL,79890,42.111619,-87.979099
769,Arlington IA,885,42.733827,-91.666814
770,Arlington IL,474,41.443669,-89.221949
771,Arlington IN,970,39.648791,-85.582775
772,Arlington KS,765,37.859795,-98.159045
773,Arlington KY,1505,36.800117,-88.943835
774,Arlington MN,3227,44.615279,-94.076195
775,Arlington NE,2150,41.441654,-96.306974
776,Arlington NY,42810,41.676775,-73.885217
777,Arlington OH,2620,40.876109,-83.668536
778,Arlington OR,851,45.666417,-120.197148
779,Arlington SD,2062,44.366769,-97.068734
780,Arlington TN,38927,35.275171,-89.729502
781,Arlington TX,309552,32.778494,-97.083425
782,Arlington VA,208058,38.887103,-77.093197
783,Arlington VT,3408,43.085681,-73.159364
784,Arlington WA,40815,48.18293,-122.112126
785,Arlington WI,1351,43.326868,-89.363082
786,Armada MI,5379,42.840903,-82.889905
787,Armagh PA,922,40.442452,-79.013055
788,Armbrust PA,23,40.236097,-79.553884
789,Armington IL,613,40.317046,-89.321775
790,Arminto WY,10,43.120883,-107.343611
791,Armona CA,4143,36.309459,-119.705279
792,Armonk NY,7987,41.136002,-73.700942
793,Armour SD,1128,43.316045,-98.341372
794,Armstrong Creek WI,418,45.67261,-88.490847
795,Armstrong IA,1452,43.402423,-94.485305
796,Armstrong IL,375,40.217548,-87.894256
797,Armstrong Mills OH,2070,39.956304,-80.882181
798,Armstrong MO,703,39.256585,-92.708976
799,Armstrong TX,37,26.738706,-97.709291
800,Armuchee GA,2294,34.441082,-85.184298
801,Arnaudville LA,9780,30.398054,-91.926285
802,Arnegard ND,313,47.808832,-103.453837
803,Arnett WV,604,37.850214,-81.435484
804,Arnold KS,63,38.609122,-100.012003
805,Arnold MD,21317,39.047587,-76.49406
806,Arnold MO,35439,38.430484,-90.387046
807,Arnold NE,931,41.445583,-100.156731
808,Arnold PA,38785,40.571179,-79.741547
809,Arnolds Park IA,1140,43.36358,-95.131261
810,Arnoldsburg WV,1200,38.822704,-81.155135
811,Arnoldsville GA,1440,33.880338,-83.234137
812,Aroda VA,874,38.325626,-78.236615
813,Aroma Park IL,538,41.094653,-87.771887
814,Aromas CA,3918,36.878522,-121.639781
815,Arona PA,367,40.26799,-79.659104
816,Arp TX,3937,32.241758,-95.063908
817,Arpin WI,2392,44.54194,-90.037049
818,Arrey NM,829,32.802057,-107.354368
819,Arriba CO,327,39.30253,-103.270968
820,Arrington TN,1855,35.904876,-86.564515
821,Arrowsmith IL,549,40.411966,-88.629648
822,Arroyo Hondo NM,1007,36.531848,-105.621998
823,Arroyo Seco NM,1345,36.504568,-105.594609
824,Arsenal PA,12713,40.474536,-79.952524
825,Art TX,125,30.775419,-99.093732
826,Artas SD,1286,45.769768,-99.615926
827,Artemas PA,368,39.757465,-78.40314
828,Artemus KY,681,36.838837,-83.832886
829,Artesia NM,17217,32.838355,-104.407401
830,Arthur City TX,1118,33.840031,-95.494037
831,Arthur IA,394,42.336283,-95.367519
832,Arthur IL,4860,39.707679,-88.455509
833,Arthur ND,427,47.104774,-97.209737
834,Arthur NE,400,41.573952,-101.693123
835,Artie WV,210,37.918139,-81.378772
836,Arundel ME,23146,43.483647,-70.471928
837,Arvada CO,114849,39.794533,-105.098402
838,Arvada WY,216,44.689876,-106.109191
839,Arvilla ND,367,47.909292,-97.487124
840,Arvin CA,20938,35.196629,-118.8336
841,Arvonia VA,851,37.671355,-78.38888
842,Ary KY,380,37.354364,-83.139253
843,Asbury MO,731,37.294168,-94.565484
844,Asbury WV,558,37.848766,-80.565319
845,Asco WV,927,37.468339,-81.667889
846,Ash Fork AZ,1885,35.214998,-112.502681
847,Ash Grove MO,3746,37.315972,-93.57813
848,Ash NC,3886,34.065871,-78.505637
849,Ashaway RI,2607,41.423054,-71.783745
850,Ashburn GA,6474,31.705877,-83.660775
851,Ashburn MO,68,39.52904,-91.187651
852,Ashburnham MA,6089,42.649614,-71.92666
853,Ashby MA,3074,42.674462,-71.817369
854,Ashby MN,1185,46.078066,-95.821417
855,Ashby NE,239,41.977578,-101.963581
856,Ashcamp KY,976,37.258909,-82.461269
857,Ashdown AR,8925,33.678711,-94.135102
858,Asher OK,1252,34.984862,-96.876326
859,Asherton TX,1219,28.436421,-99.748611
860,Asheville NC,120389,35.597075,-82.556533
861,Ashfield MA,1506,42.523207,-72.810998
862,Ashford AL,6187,31.1888,-85.253488
863,Ashford WA,759,46.753121,-121.989791
864,Ashford WV,1153,38.182291,-81.711324
865,Ashkum IL,1372,40.884431,-87.941148
866,Ashland AL,5103,33.247363,-85.828976
867,Ashland City TN,17184,36.273132,-87.044719
868,Ashland KS,1117,37.182345,-99.75904
869,Ashland KY,21712,38.461255,-82.644721
870,Ashland MA,16593,42.253909,-71.458347
871,Ashland ME,1670,46.618438,-68.387608
872,Ashland MO,5704,38.787771,-92.253662
873,Ashland MT,1160,45.58275,-106.279722
874,Ashland NE,4284,41.05411,-96.39041
875,Ashland NH,2076,43.703428,-71.612085
876,Ashland NY,173,42.237174,-74.307925
877,Ashland OH,32345,40.855892,-82.318931
878,Ashland OR,24469,42.188509,-122.693033
879,Ashland PA,7676,40.773231,-76.342972
880,Ashland VA,15227,37.73948,-77.478373
881,Ashley Falls MA,829,42.059552,-73.320195
882,Ashley IL,1457,38.306002,-89.231115
883,Ashley IN,1583,41.534651,-85.050385
884,Ashley MI,1676,43.189103,-84.48796
885,Ashley ND,1150,46.053677,-99.3164
886,Ashley OH,2917,40.416264,-82.954201
887,Ashley PA,16105,41.206709,-75.918157
888,Ashmore IL,1344,39.525428,-88.034097
889,Ashtabula OH,33421,41.867877,-80.794681
890,Ashton IA,875,43.305259,-95.765509
891,Ashton ID,2539,43.988078,-111.619526
892,Ashton IL,1759,41.864327,-89.2086
893,Ashton MD,1875,39.151027,-76.99242
894,Ashton NE,386,41.267184,-98.803352
895,Ashton WV,729,38.657102,-82.108907
896,Ashuelot NH,395,42.785057,-72.434899
897,Ashville AL,7319,33.837366,-86.255167
898,Ashville NY,3540,42.108376,-79.405624
899,Ashville OH,10697,39.731576,-82.944567
900,Ashville PA,1535,40.551266,-78.534639
901,Ashwaubenon WI,28153,44.505525,-88.066799
902,Ashwood OR,61,44.719479,-120.719161
903,Askew MS,1910,34.453966,-90.185524
904,Askov MN,1128,46.196408,-92.752812
905,Asotin WA,1875,46.134318,-117.001548
906,Aspen CO,9921,39.195139,-106.823593
907,Aspen Hill MD,64696,39.081041,-77.063233
908,Aspermont TX,1350,33.130059,-100.234372
909,Aspers PA,3059,39.976533,-77.228657
910,Aspinwall PA,12615,40.499225,-79.917513
911,Assaria KS,1146,38.667596,-97.62032
912,Assawoman VA,155,37.86629,-75.52966
913,Assonet MA,4125,41.797458,-71.060736
914,Assumption IL,1669,39.509489,-89.039807
915,Astatula FL,2500,28.708754,-81.719473
916,Aston PA,21206,39.864282,-75.43321
917,Astor FL,2565,29.165031,-81.539929
918,Astoria IL,1921,40.231144,-90.344254
919,Astoria NY,173960,40.750316,-73.939393
920,Astoria OR,16859,46.155802,-123.79798
921,Astoria SD,485,44.573515,-96.541634
922,Atalissa IA,861,41.561443,-91.174764
923,Atascadero CA,31375,35.475439,-120.663838
924,Atascosa TX,8255,29.270501,-98.74212
925,Atchison KS,13755,39.559411,-95.130408
926,Atglen PA,3066,39.945782,-75.970343
927,Athelstane WI,1051,45.422819,-88.175282
928,Athena OR,1302,45.828893,-118.497147
929,Athens AL,25251,34.803604,-86.970733
930,Athens GA,111907,33.976097,-83.363174
931,Athens LA,989,32.645073,-93.023875
932,Athens ME,1048,44.938844,-69.669482
933,Athens MI,2285,42.102962,-85.231742
934,Athens NY,3010,42.2736,-73.815175
935,Athens OH,34122,39.317824,-82.102011
936,Athens PA,6162,41.949002,-76.488855
937,Athens TN,25461,35.457389,-84.604261
938,Athens TX,17253,32.193499,-95.84318
939,Athens WV,2063,37.432298,-80.997362
940,Atherton CA,7089,37.456255,-122.200198
941,Athol ID,6150,47.92674,-116.731821
942,Athol KS,157,39.771872,-98.907733
943,Athol NY,627,43.483872,-73.881695
944,Athol SD,291,45.012833,-98.442549
945,Atkins AR,6765,35.244948,-92.950696
946,Atkins IA,2303,41.988103,-91.875966
947,Atkins VA,1977,36.866532,-81.404791
948,Atkinson IL,1391,41.41619,-90.022482
949,Atkinson NC,1521,34.530445,-78.167108
950,Atkinson NE,2212,42.548279,-98.976087
951,Atkinson NH,6753,42.836981,-71.1603
952,Atlanta GA,709310,33.752504,-84.388846
953,Atlanta ID,41,43.567436,-115.357042
954,Atlanta IL,2321,40.258624,-89.230021
955,Atlanta IN,2161,40.146964,-85.933945
956,Atlanta KS,556,37.434309,-96.766135
957,Atlanta LA,797,31.873583,-92.764125
958,Atlanta MI,3618,44.992371,-84.147982
959,Atlanta MO,868,39.914639,-92.475019
960,Atlanta NE,131,40.384901,-99.484354
961,Atlanta NY,591,42.556269,-77.480091
962,Atlanta TX,11007,33.10898,-94.164617
963,Atlantic Beach FL,23673,30.348258,-81.415866
964,Atlantic Beach NY,2653,40.588652,-73.725545
965,Atlantic City NJ,39554,39.366411,-74.431727
966,Atlantic Highlan NJ,8574,40.40772,-74.032411
967,Atlantic IA,8494,41.400279,-95.010123
968,Atlantic Mine MI,2005,47.093663,-88.661318
969,Atlantic NC,694,34.888827,-76.352097
970,Atlantic PA,1409,41.533313,-80.286251
971,Atmautluak AK,7632,60.832389,-161.824053
972,Atmore AL,18355,31.057245,-87.487347
973,Atoka OK,10112,34.34451,-96.141827
974,Atoka TN,9866,35.421337,-89.8216
975,Attalla AL,12416,34.029597,-86.096717
976,Atterbury IL,6154,40.011529,-89.847874
977,Attica IN,6321,40.281127,-87.224108
978,Attica KS,856,37.25277,-98.226425
979,Attica MI,5682,43.054673,-83.166842
980,Attica NY,9822,42.849918,-78.279826
981,Attleboro MA,43593,41.929599,-71.30092
982,Atwater CA,37073,37.353154,-120.600837
983,Atwater MN,2339,45.111645,-94.793779
984,Atwater OH,6917,41.033487,-81.198456
985,Atwood CO,349,40.517432,-103.039301
986,Atwood IL,1684,39.804368,-88.449446
987,Atwood KS,1612,39.792607,-101.031766
988,Atwood OK,387,34.919194,-96.357703
989,Atwood TN,1849,35.966345,-88.624656
990,Au Gres MI,3238,44.033802,-83.702024
991,Au Sable Chasm NY,36,44.521594,-73.508976
992,Au Sable Forks NY,1998,44.44994,-73.685672
993,Au Train MI,627,46.428231,-86.779327
994,Auberry CA,3862,37.072635,-119.457202
995,Aubrey AR,135,34.702727,-90.911331
996,Aubrey TX,22141,33.291997,-96.987866
997,Auburn AL,33201,32.602043,-85.489001
998,Auburn CA,27844,38.928311,-121.084347
999,Auburn Hills MI,20298,42.658345,-83.237489
1000,Auburn IL,5748,39.591787,-89.744033
1001,Auburn IN,18630,41.359001,-85.046848
1002,Auburn KS,2955,38.916673,-95.819938
1003,Auburn KY,5407,36.881755,-86.719813
1004,Auburn MA,16075,42.205502,-71.839144
1005,Auburn ME,23045,44.094785,-70.238978
1006,Auburn MI,6554,43.607988,-84.10267
1007,Auburn NE,4389,40.378889,-95.852646
1008,Auburn NH,4953,42.992529,-71.344892
1009,Auburn NY,39506,42.929958,-76.562605
1010,Auburn PA,4783,40.596157,-76.13439
1011,Auburn WA,31647,47.30503,-122.206741
1012,Auburn WV,320,39.086382,-80.883656
1013,Auburn WY,519,42.805114,-110.994415
1014,Auburndale FL,28874,28.072443,-81.812234
1015,Auburndale WI,2181,44.637836,-90.013577
1016,Auburntown TN,793,35.974392,-86.107532
1017,Audubon IA,3325,41.730032,-94.916412
1018,Audubon MN,1878,46.871887,-95.988136
1019,Audubon NJ,9874,39.891035,-75.072425
1020,Augusta AR,2603,35.278806,-91.352653
1021,Augusta GA,42111,33.460084,-81.972959
1022,Augusta IL,860,40.234109,-90.955416
1023,Augusta KS,13890,37.683606,-96.964772
1024,Augusta KY,2510,38.762991,-83.995352
1025,Augusta ME,26086,44.323228,-69.766548
1026,Augusta MI,3339,42.356313,-85.354012
1027,Augusta MO,1292,38.572767,-90.881471
1028,Augusta MT,666,47.453739,-112.388304
1029,Augusta NJ,887,41.145086,-74.684753
1030,Augusta WI,4016,44.694737,-91.123154
1031,Augusta WV,5663,39.299821,-78.593089
1032,Aulander NC,3992,36.147452,-77.114086
1033,Ault CO,2791,40.593772,-104.735629
1034,Aultman PA,294,40.540083,-79.219791
1035,Aurelia IA,1491,42.69122,-95.438086
1036,Aurora CO,389246,39.736788,-104.864618
1037,Aurora IA,481,42.620317,-91.733469
1038,Aurora IL,167505,41.752269,-88.245281
1039,Aurora IN,10422,39.071897,-84.945188
1040,Aurora KS,179,39.447188,-97.530411
1041,Aurora ME,176,44.886113,-68.295929
1042,Aurora MN,3299,47.495096,-92.241486
1043,Aurora NC,2331,35.302282,-76.799448
1044,Aurora NE,5475,40.852838,-98.020107
1045,Aurora NY,1914,42.747231,-76.67749
1046,Aurora OR,5623,45.228432,-122.803881
1047,Aurora SD,863,44.283786,-96.704268
1048,Austerlitz NY,435,42.322272,-73.454965
1049,Austin AR,6708,35.028369,-91.959398
1050,Austin CO,1655,38.797544,-107.97384
1051,Austin IN,7255,38.747801,-85.796188
1052,Austin KY,840,36.812376,-85.98503
1053,Austin MN,28483,43.669538,-92.978374
1054,Austin NV,550,39.507986,-117.081063
1055,Austin PA,1392,41.629649,-78.090812
1056,Austin TX,880108,30.271289,-97.742559
1057,Austin UT,3652,38.645305,-112.132434
1058,Austinburg OH,1667,41.75536,-80.858422
1059,Austintown OH,27766,41.093903,-80.743966
1060,Austinville VA,2401,36.819461,-80.858322
1061,Austonio TX,12012,31.315067,-95.46833
1062,Autaugaville AL,1975,32.462462,-86.714938
1063,Autryville NC,4627,35.099673,-78.602111
1064,Auxier KY,819,37.721847,-82.767736
1065,Auxvasse MO,3334,39.012184,-91.885801
1066,Ava IL,2164,37.879286,-89.465366
1067,Ava MO,9403,36.940717,-92.676544
1068,Ava NY,1153,43.344519,-75.450919
1069,Avalon CA,4090,33.331963,-118.343706
1070,Avalon NJ,1444,39.095095,-74.726177
1071,Avalon WI,354,42.65979,-88.837142
1072,Avella PA,3579,40.273386,-80.456503
1073,Avenal CA,15529,35.987667,-120.122716
1074,Avenel NJ,16305,40.582568,-74.278522
1075,Avenue MD,1120,38.282624,-76.746553
1076,Avera GA,741,33.140997,-82.514965
1077,Averill Park NY,7930,42.636511,-73.550437
1078,Averill VT,20,44.992304,-71.700268
1079,Avery ID,68,47.271431,-115.866012
1080,Avery TX,1806,33.533935,-94.786708
1081,Avilla IN,4679,41.36894,-85.241418
1082,Avilla MO,125,37.194709,-94.117043
1083,Avinger TX,2588,32.848514,-94.579534
1084,Avoca IA,2036,41.476834,-95.350872
1085,Avoca MN,361,43.970553,-95.600152
1086,Avoca NE,515,40.815941,-96.095736
1087,Avoca PA,6812,41.330857,-75.744655
1088,Avoca TX,175,32.883225,-99.69642
1089,Avoca WI,1125,43.157137,-90.288859
1090,Avon By The Sea NJ,1901,40.191796,-74.016737
1091,Avon CT,18385,41.790498,-72.865323
1092,Avon IL,1747,40.654947,-90.446053
1093,Avon IN,30309,39.716036,-86.395061
1094,Avon Lake OH,22581,41.501904,-82.011094
1095,Avon MA,4356,42.125825,-71.043738
1096,Avon MN,5120,45.612168,-94.436029
1097,Avon NY,7142,42.903034,-77.727398
1098,Avon OH,21193,41.446713,-82.020359
1099,Avon Park FL,24942,27.600085,-81.501486
1100,Avon SD,987,43.039725,-98.028261
1101,Avondale AZ,39507,33.432114,-112.343754
1102,Avondale Estates GA,5861,33.771727,-84.260691
1103,Avondale PA,8584,39.821904,-75.768694
1104,Avonmore PA,2634,40.522125,-79.485264
1105,Awendaw SC,2737,32.951475,-79.686075
1106,Axis AL,1481,31.006817,-88.04274
1107,Axson GA,1273,31.303455,-82.731945
1108,Axtell KS,757,39.870676,-96.267559
1109,Axtell NE,1180,40.526907,-99.116903
1110,Axtell TX,2231,31.660966,-96.988178
1111,Axtell UT,240,39.053248,-111.824303
1112,Axton VA,6797,36.654839,-79.73964
1113,Ayden NC,10346,35.456471,-77.405127
1114,Aydlett NC,747,36.304469,-75.902914
1115,Ayer MA,7089,42.55914,-71.578763
1116,Aylett VA,6279,37.822113,-77.188473
1117,Aylor VA,5547,38.384495,-78.296458
1118,Aynor SC,5146,33.982271,-79.17773
1119,Ayr ND,119,47.019576,-97.572841
1120,Ayr NE,474,40.441054,-98.438982
1121,Ayrshire IA,279,43.037001,-94.847804
1122,Azalea OR,759,42.844992,-123.155017
1123,Azalea Park FL,31465,28.544924,-81.305274
1124,Azle TX,27270,32.903453,-97.541153
1125,Aztec NM,17603,36.820499,-108.010982
1126,Azusa CA,59705,34.12476,-117.903083
1127,Babb MT,460,48.878781,-113.368132
1128,Babbitt MN,1825,47.709121,-91.956951
1129,Babcock WI,191,44.303064,-90.098574
1130,Babson Park FL,3036,27.831698,-81.534221
1131,Backoo ND,1441,48.91103,-97.881927
1132,Backus MN,2372,46.869905,-94.395918
1133,Bacliff TX,8673,29.505506,-94.989293
1134,Baconton GA,2896,31.387804,-84.11345
1135,Bad Axe MI,7551,43.806745,-83.005378
1136,Baden PA,9450,40.641595,-80.198471
1137,Bader IL,546,40.155025,-90.351671
1138,Badger IA,719,42.599595,-94.162988
1139,Badger MN,1157,48.791294,-96.096523
1140,Badger SD,75,44.491802,-97.218368
1141,Bagdad AZ,2219,34.578484,-113.175535
1142,Bagdad KY,1902,38.260811,-85.065142
1143,Baggs WY,717,41.031191,-107.668733
1144,Bagley IA,584,41.834053,-94.441535
1145,Bagley MN,4639,47.487024,-95.41334
1146,Bagley WI,878,42.920734,-91.068502
1147,Bagwell TX,778,33.836089,-95.14869
1148,Bahama NC,3471,36.156581,-78.890284
1149,Bailey CO,8042,39.448233,-105.469282
1150,Bailey Island ME,330,43.734147,-69.995175
1151,Bailey MI,1129,43.276768,-85.831318
1152,Bailey MS,1828,32.475417,-88.699086
1153,Bailey NC,6629,35.807167,-78.089226
1154,Bailey Switch KY,11132,36.864807,-83.899316
1155,Baileys Crossroa VA,27989,38.848506,-77.136928
1156,Baileys Harbor WI,1240,45.056549,-87.167626
1157,Baileyton AL,2117,34.268298,-86.621299
1158,Baileyton TN,25588,36.160807,-82.833136
1159,Baileyville IL,534,42.190465,-89.593937
1160,Baileyville KS,530,39.881621,-96.180136
1161,Bainbridge IN,1928,39.740664,-86.771119
1162,Bainbridge Islan WA,23025,47.645048,-122.531297
1163,Bainbridge MD,7252,39.622264,-76.083706
1164,Bainbridge NY,5216,42.311975,-75.489411
1165,Bainbridge OH,5303,39.213116,-83.276268
1166,Bainbridge PA,2464,40.1086,-76.672589
1167,Bains LA,14720,30.858658,-91.392266
1168,Bainville MT,373,48.157989,-104.199532
1169,Baird MS,11638,33.449075,-90.654144
1170,Baird TX,2787,32.391557,-99.37766
1171,Bairoil WY,106,42.232721,-107.563288
1172,Baisden WV,1004,37.571492,-81.932758
1173,Baker CA,763,35.360573,-116.063754
1174,Baker FL,5296,30.831569,-86.677015
1175,Baker LA,19803,30.581395,-91.142893
1176,Baker MT,2498,46.355219,-104.266707
1177,Baker ND,134,48.321709,-99.550489
1178,Baker NV,235,39.065996,-114.246165
1179,Baker OK,1736,36.909012,-100.869028
1180,Baker WV,1118,39.065588,-78.774826
1181,Bakersfield CA,403462,35.386611,-119.017063
1182,Bakersfield MO,778,36.53323,-92.150679
1183,Bakersfield VT,958,44.790518,-72.796834
1184,Bakerstown PA,323,40.647826,-79.930956
1185,Bakersville NC,6715,36.028588,-82.171133
1186,Bal Harbour FL,13971,25.879094,-80.127055
1187,Bala Cynwyd PA,9416,40.01179,-75.23421
1188,Balaton MN,1366,44.225253,-95.88377
1189,Balch Springs TX,23031,32.720216,-96.615278
1190,Balcones Heights TX,45307,29.468525,-98.526352
1191,Bald Knob AR,6577,35.311331,-91.550197
1192,Baldwin City KS,7459,38.795308,-95.227621
1193,Baldwin FL,6606,30.229562,-81.978345
1194,Baldwin GA,3186,34.456411,-83.529781
1195,Baldwin IA,383,42.073188,-90.819968
1196,Baldwin IL,807,38.175351,-89.841391
1197,Baldwin LA,2545,29.848784,-91.545783
1198,Baldwin MD,4653,39.519395,-76.492711
1199,Baldwin MI,4328,43.889409,-85.881874
1200,Baldwin ND,658,46.954338,-100.761464
1201,Baldwin NY,33048,40.654755,-73.609688
1202,Baldwin WI,6278,44.9657,-92.365498
1203,Baldwin WV,5120,38.933619,-80.82783
1204,Baldwinsville NY,31637,43.162039,-76.323718
1205,Baldwinville MA,3336,42.593568,-72.064647
1206,Baldwyn MS,7832,34.527959,-88.63748
1207,Balfour ND,155,47.968451,-100.520929
1208,Balko OK,510,36.599607,-100.710329
1209,Ball Ground GA,12908,34.339262,-84.375756
1210,Ball State Unive IN,6189,40.192739,-85.410153
1211,Ballantine MT,926,45.954699,-108.123133
1212,Ballard CA,7646,34.609931,-120.129286
1213,Ballard WV,1677,37.49803,-80.76139
1214,Ballico CA,912,37.452455,-120.700152
1215,Ballinger TX,4869,31.746836,-99.958927
1216,Ballston Lake NY,14740,42.919176,-73.855171
1217,Ballston Spa NY,31192,43.004956,-73.84858
1218,Ballwin MO,56261,38.577032,-90.525527
1219,Bally PA,1142,40.400557,-75.587483
1220,Balmorhea TX,721,31.012361,-103.693316
1221,Balsam Grove NC,754,35.229751,-82.87795
1222,Balsam Lake WI,2512,45.458845,-92.414954
1223,Baltic CT,3282,41.62629,-72.077499
1224,Baltic OH,3851,40.447568,-81.679171
1225,Baltic SD,1879,43.730908,-96.756272
1226,Baltimore MD,628484,39.29463,-76.625203
1227,Baltimore OH,8147,39.864452,-82.624023
1228,Bamberg SC,6989,33.277915,-81.017744
1229,Bancroft IA,1051,43.293485,-94.210778
1230,Bancroft ID,843,42.720463,-111.842944
1231,Bancroft MI,2492,42.881957,-84.120725
1232,Bancroft NE,885,42.026716,-96.617146
1233,Bancroft WI,1326,44.30648,-89.530438
1234,Bandera TX,8689,29.72755,-99.045279
1235,Bandon OR,6953,43.096806,-124.40367
1236,Bandy VA,962,37.166112,-81.6508
1237,Bandytown WV,211,37.921015,-81.635204
1238,Baneberry TN,6668,36.090299,-83.287921
1239,Bangor CA,578,39.424862,-121.350499
1240,Bangor ME,44899,44.824199,-68.791839
1241,Bangor MI,5508,42.33122,-86.131096
1242,Bangor NY,2915,44.829997,-74.413369
1243,Bangor WI,2947,43.868697,-90.980888
1244,Bangs TX,2945,31.768388,-99.107657
1245,Banks AL,1522,31.836792,-85.799844
1246,Banks AR,673,33.549665,-92.260386
1247,Banks ID,24,44.149152,-115.983737
1248,Banks OR,4550,45.653476,-123.120982
1249,Bankston AL,1021,33.70083,-87.68965
1250,Banner Elk NC,6249,36.170461,-81.841194
1251,Banner KY,1498,37.577051,-82.697369
1252,Banner MS,396,34.094911,-89.415383
1253,Banner WY,618,44.590804,-106.87331
1254,Banning CA,31638,33.92816,-116.889928
1255,Bannister MI,916,43.161537,-84.359679
1256,Bantam CT,1446,41.721483,-73.252028
1257,Bantry ND,35,48.511875,-100.789445
1258,Bar Harbor ME,5222,44.373799,-68.244791
1259,Baraboo WI,19881,43.482531,-89.746168
1260,Barataria LA,1227,29.717859,-90.126232
1261,Barbeau MI,409,46.284753,-84.217332
1262,Barboursville WV,12661,38.389272,-82.295973
1263,Barclay IL,5111,39.889456,-89.60251
1264,Barclay MD,583,39.129871,-75.860079
1265,Barco NC,833,36.358778,-75.979284
1266,Bard NM,82,35.115364,-103.317778
1267,Bardolph IL,235,40.498078,-90.502495
1268,Bardonia NY,23045,41.099176,-74.009589
1269,Bardsdale CA,17334,34.402557,-118.904071
1270,Bardstown KY,28245,37.80835,-85.461343
1271,Bardwell KY,2422,36.863387,-89.020855
1272,Barefoot Bay FL,9079,27.878146,-80.516051
1273,Bargersville IN,5928,39.499989,-86.179687
1274,Barhamsville VA,1429,37.461662,-76.832097
1275,Baring MO,532,40.250864,-92.231074
1276,Baring WA,294,47.757787,-121.44757
1277,Barker NY,2362,43.336779,-78.542004
1278,Barksdale A F B LA,2793,32.514313,-93.638172
1279,Barksdale TX,258,29.708488,-100.070983
1280,Barling AR,4735,35.332963,-94.308226
1281,Barlow KY,1490,37.049279,-89.040815
1282,Barnabus WV,1148,37.722368,-82.004931
1283,Barnard KS,246,39.181572,-98.071144
1284,Barnard MO,761,40.186176,-94.805558
1285,Barnard SD,63,45.720469,-98.553379
1286,Barnardsville NC,2225,35.77483,-82.456682
1287,Barnegat NJ,22448,39.755248,-74.246988
1288,Barnes City IA,285,41.488269,-92.470338
1289,Barnes KS,298,39.684114,-96.867574
1290,Barnes WI,2799,46.388821,-91.770154
1291,Barnesboro PA,5323,40.673307,-78.777058
1292,Barnesville GA,13493,33.045713,-84.15147
1293,Barnesville MD,259,39.223321,-77.376426
1294,Barnesville PA,2078,40.813811,-76.06109
1295,Barnet VT,1269,44.317923,-72.078326
1296,Barnett MO,2374,38.396696,-92.668594
1297,Barnetts Creek KY,2433,37.838463,-82.85743
1298,Barneveld NY,1684,43.223697,-75.161156
1299,Barneveld WI,2196,43.015797,-89.904229
1300,Barney GA,1171,31.007424,-83.521934
1301,Barney ND,229,46.249621,-96.970772
1302,Barnhart MO,9973,38.338425,-90.41417
1303,Barnhart TX,156,31.159647,-101.191752
1304,Barnhill IL,142,38.278144,-88.350831
1305,Barnsdall OK,2333,36.542866,-96.131789
1306,Barnstable MA,1850,41.698289,-70.300067
1307,Barnstead NH,960,43.36513,-71.286946
1308,Barnum IA,381,42.515867,-94.370327
1309,Barnum MN,3440,46.519616,-92.629167
1310,Barnum TX,3992,31.000657,-94.7959
1311,Barnwell SC,11864,33.233492,-81.35231
1312,Baroda MI,3104,41.948818,-86.491274
1313,Barr IL,1454,39.41654,-89.956736
1314,Barre MA,5079,42.409698,-72.108354
1315,Barre VT,17169,44.194522,-72.493619
1316,Barree PA,2410,40.549901,-78.107066
1317,Barren Springs VA,884,36.907787,-80.809006
1318,Barrett MN,757,45.899555,-95.875391
1319,Barrett TX,26236,29.937812,-95.07522
1320,Barrington IL,44095,42.161387,-88.138345
1321,Barrington NH,8512,43.2027,-71.037675
1322,Barrington NJ,5250,39.865062,-75.056361
1323,Barrington RI,16310,41.744334,-71.317497
1324,Barron WI,5728,45.400535,-91.84996
1325,Barronett WI,601,45.618995,-92.019595
1326,Barrow AK,4213,71.234637,-156.817409
1327,Barry IL,2162,39.704662,-91.026482
1328,Barry MN,13,45.547446,-96.560527
1329,Barry TX,1322,32.101356,-96.625141
1330,Barryton MI,2264,43.750651,-85.154654
1331,Barrytown NY,167,42.0006,-73.921484
1332,Barryville NY,1207,41.491162,-74.915234
1333,Barstow CA,31894,34.89145,-117.038702
1334,Barstow TX,397,31.463908,-103.397086
1335,Bartelso IL,1481,38.53851,-89.457841
1336,Bartlesville OK,39999,36.743956,-95.992091
1337,Bartlett KS,207,37.060096,-95.211512
1338,Bartlett NE,275,41.8697,-98.556668
1339,Bartlett NH,824,44.08656,-71.2491
1340,Bartlett TN,41948,35.188639,-89.86409
1341,Bartlett TX,3317,30.799056,-97.426302
1342,Bartley NE,397,40.258113,-100.29075
1343,Barto PA,4998,40.381501,-75.574889
1344,Barton City MI,535,44.701956,-83.599372
1345,Barton MD,1265,39.533135,-79.02813
1346,Barton NY,2287,42.069534,-76.398349
1347,Barton VT,1873,44.739465,-72.160005
1348,Bartonsville PA,1711,41.008007,-75.296726
1349,Bartonville IL,10941,40.652434,-89.673898
1350,Bartow FL,27542,27.895664,-81.812684
1351,Bartow GA,1575,32.863186,-82.470788
1352,Bartow WV,346,38.551266,-79.795242
1353,Basalt CO,5914,39.353466,-106.998752
1354,Basco IL,389,40.328303,-91.196983
1355,Bascom FL,1264,30.951365,-85.09722
1356,Basehor KS,5614,39.128137,-94.957034
1357,Basile LA,3838,30.497787,-92.57357
1358,Basin WY,1760,44.378765,-108.043787
1359,Basinger FL,20180,27.311532,-80.847853
1360,Baskerville VA,1220,36.723595,-78.279047
1361,Baskin LA,1288,32.289728,-91.713154
1362,Basking Ridge NJ,26747,40.678937,-74.560463
1363,Basom NY,1751,43.080724,-78.395143
1364,Bass Harbor ME,490,44.1993,-68.380387
1365,Bass Lake CA,674,37.324359,-119.556839
1366,Bass River MA,9371,41.672805,-70.19731
1367,Bassett CA,30485,34.050963,-117.980026
1368,Bassett NE,1224,42.576293,-99.538732
1369,Bassett VA,13674,36.753425,-80.005506
1370,Bassfield MS,2936,31.503695,-89.702735
1371,Bastian VA,1560,37.15742,-81.198855
1372,Bastrop LA,23266,32.789382,-91.90776
1373,Bastrop TX,25160,30.13883,-97.292101
1374,Basye VA,863,38.795806,-78.767363
1375,Batavia IA,1215,40.99048,-92.143059
1376,Batavia IL,28897,41.848165,-88.309756
1377,Batavia NY,23306,43.000316,-78.192869
1378,Batavia OH,31485,39.095661,-84.145125
1379,Batchelor LA,1433,30.802631,-91.668675
1380,Batchtown IL,648,39.072468,-90.659114
1381,Bates City MO,3106,39.021887,-94.07984
1382,Bates IL,2997,39.736048,-89.905721
1383,Batesburg SC,9565,33.938595,-81.548988
1384,Batesville AR,25099,35.782614,-91.63519
1385,Batesville IN,11727,39.300057,-85.222053
1386,Batesville MS,16127,34.331651,-89.91418
1387,Batesville TX,1207,28.928648,-99.611457
1388,Bath IN,306,39.499237,-84.836007
1389,Bath ME,10818,43.906155,-69.826565
1390,Bath MI,5178,42.820563,-84.454547
1391,Bath NC,2225,35.470161,-76.771531
1392,Bath NH,911,44.173419,-71.956741
1393,Bath PA,11387,40.755144,-75.40856
1394,Bath SD,620,45.456352,-98.355209
1395,Bath Springs TN,786,35.452111,-88.12863
1396,Bathgate ND,153,48.868632,-97.483215
1397,Baton Rouge LA,343521,30.450731,-91.186954
1398,Batson TX,1191,30.22502,-94.60959
1399,Batsto NJ,24308,39.638878,-74.790735
1400,Battle Creek IA,1075,42.332662,-95.604517
1401,Battle Creek MI,47567,42.302806,-85.212825
1402,Battle Creek NE,1446,41.994283,-97.598153
1403,Battle Ground IN,2414,40.5248,-86.823784
1404,Battle Ground WA,34232,45.790667,-122.531845
1405,Battle Lake MN,2892,46.314175,-95.714395
1406,Battle Mountain NV,5358,40.621985,-116.955439
1407,Battleboro NC,5091,35.84387,-77.431107
1408,Battlement Mesa CO,5957,39.440729,-108.038038
1409,Battletown KY,1336,38.039295,-86.299104
1410,Battleview ND,687,48.589815,-102.644646
1411,Baudette MN,2749,48.692724,-94.599479
1412,Bauxite AR,4074,34.545537,-92.360531
1413,Bavaria KS,51499,38.823802,-97.608787
1414,Bavon VA,953,37.374252,-76.304463
1415,Baxley GA,16084,31.783663,-82.348643
1416,Baxter IA,1681,41.820369,-93.158332
1417,Baxter KY,2499,36.874913,-83.314082
1418,Baxter Springs KS,5836,37.028057,-94.739276
1419,Baxter TN,6543,36.124917,-85.637766
1420,Baxter WV,227,39.536056,-80.141691
1421,Bay AR,2294,35.74559,-90.550658
1422,Bay City MI,27262,43.58205,-83.878073
1423,Bay City OR,1530,45.519658,-123.876075
1424,Bay City WI,1191,44.6166,-92.446889
1425,Bay Head NJ,24405,40.080226,-74.065719
1426,Bay Minette AL,19090,30.86354,-87.76444
1427,Bay MO,5725,38.668381,-91.467717
1428,Bay Port MI,1042,43.837744,-83.352461
1429,Bay Springs MS,5146,31.944939,-89.233768
1430,Bay View MI,16862,45.361268,-84.940263
1431,Bay View WI,35149,42.981405,-87.894598
1432,Bay Village OH,15651,41.484137,-81.928868
1433,Bayard IA,691,41.838599,-94.591533
1434,Bayard NE,2351,41.757923,-103.301887
1435,Bayberry NY,30124,43.148048,-76.223269
1436,Bayboro NC,2915,35.152598,-76.751793
1437,Bayfield CO,8228,37.260328,-107.613728
1438,Bayfield WI,2478,46.835359,-90.821681
1439,Baylis IL,611,39.761201,-90.883216
1440,Bayonne NJ,63031,40.666399,-74.119169
1441,Bayou La Batre AL,1983,30.407983,-88.250697
1442,Bayport MN,3471,45.021405,-92.784375
1443,Bayport NY,8030,40.744408,-73.054207
1444,Bayside CA,1787,40.822381,-124.027305
1445,Bayside NY,47490,40.780684,-73.781216
1446,Bayside TX,379,28.096758,-97.210643
1447,Baytown TX,85996,29.746063,-94.965265
1448,Bayview ID,744,47.96535,-116.568745
1449,Bayview TX,16230,26.091068,-97.490402
1450,Bayville NJ,20512,39.914708,-74.190529
1451,Bayville NY,6669,40.907382,-73.560141
1452,Bazine KS,447,38.456457,-99.701607
1453,Beach City OH,2666,40.656199,-81.585129
1454,Beach Lake PA,2561,41.603403,-75.11649
1455,Beach ND,1231,46.932381,-103.98429
1456,Beachwood NJ,11045,39.930246,-74.196145
1457,Beachwood OH,34057,41.470109,-81.523172
1458,Beacon Falls CT,6033,41.436917,-73.059656
1459,Beacon IA,284,41.287133,-92.72843
1460,Beacon NY,19880,41.509681,-73.963384
1461,Beallsville MD,214,39.167095,-77.414403
1462,Beallsville OH,1973,39.872601,-81.014358
1463,Beallsville PA,377,40.064503,-80.025056
1464,Beals ME,508,44.512967,-67.605554
1465,Beaman IA,446,42.236707,-92.816215
1466,Bean Station TN,6563,36.32493,-83.314248
1467,Bear Branch KY,418,37.210894,-83.494449
1468,Bear Creek AL,1137,34.213469,-87.686083
1469,Bear Creek NC,3795,35.612882,-79.372606
1470,Bear Creek WA,9983,47.454956,-122.822381
1471,Bear Creek WI,1514,44.5348,-88.740375
1472,Bear DE,39194,39.610187,-75.674729
1473,Bear Lake MI,2790,44.431125,-86.142497
1474,Bear Lake PA,956,41.97006,-79.461365
1475,Bear Mountain NY,2,41.306734,-73.996108
1476,Bear Valley CA,4612,38.24175,-120.342231
1477,Bear Valley Spri CA,34630,35.129776,-118.522227
1478,Bearcreek MT,113,45.15226,-109.044704
1479,Bearden AR,2498,33.729797,-92.61802
1480,Bearden OK,6221,35.447516,-96.306788
1481,Beardsley MN,529,45.553855,-96.706013
1482,Beardstown IL,7955,40.004356,-90.422851
1483,Bearsdale IL,34075,39.877413,-88.953515
1484,Bearville KY,877,37.322096,-83.068449
1485,Beasley TX,2457,29.479045,-95.968145
1486,Beason IL,500,40.143652,-89.194801
1487,Beatrice AL,1008,31.727324,-87.171912
1488,Beatrice NE,14546,40.270509,-96.743494
1489,Beattie KS,421,39.89884,-96.428618
1490,Beatty OR,320,42.436942,-121.219962
1491,Beaufort MO,1589,38.429352,-91.170929
1492,Beaufort NC,11431,34.758037,-76.622834
1493,Beaumont CA,43605,33.950429,-116.970079
1494,Beaumont KS,61,37.607871,-96.63864
1495,Beaumont KY,55,36.88758,-85.648829
1496,Beaumont MS,2690,31.136763,-88.905492
1497,Beaumont TX,142692,30.068805,-94.103896
1498,Beaux Arts WA,27946,47.619899,-122.207371
1499,Beaver AK,84,66.33883,-147.279803
1500,Beaver City NE,783,40.129036,-99.806532
1501,Beaver Creek MN,628,43.622343,-96.369771
1502,Beaver Crossing NE,900,40.788658,-97.291356
1503,Beaver Dam KY,8205,37.386958,-86.872932
1504,Beaver Dam WI,22507,43.461574,-88.840681
1505,Beaver Dams NY,3478,42.279763,-76.971953
1506,Beaver Grove MI,33561,46.53124,-87.389443
1507,Beaver Meadows PA,1067,40.922672,-75.940648
1508,Beaver OH,3597,39.023847,-82.847469
1509,Beaver OR,490,45.276746,-123.823417
1510,Beaver PA,15082,40.697184,-80.336528
1511,Beaver River NY,8830,43.801055,-75.475378
1512,Beaver Springs PA,1480,40.752766,-77.231801
1513,Beaver UT,3792,38.28071,-112.629916
1514,Beaver WA,358,48.067263,-124.305424
1515,Beaver WI,5178,45.254053,-88.061265
1516,Beaver WV,8063,37.751581,-81.073104
1517,Beavercreek OH,61168,39.709381,-84.083596
1518,Beavercreek OR,4388,45.259723,-122.475122
1519,Beaverdam VA,4249,37.903767,-77.630829
1520,Beaverton AL,673,33.942877,-88.01567
1521,Beaverton MI,9259,43.886576,-84.424059
1522,Beaverton OR,24906,45.475035,-122.805395
1523,Beavertown PA,1979,40.777378,-77.169112
1524,Beaverville IL,599,40.967164,-87.621715
1525,Beccaria PA,116,40.757938,-78.508036
1526,Bechtelsville PA,3226,40.379454,-75.625701
1527,Becker MN,9064,45.436539,-93.840966
1528,Becket MA,2314,42.359363,-73.120325
1529,Beckley WV,33590,37.793214,-81.206084
1530,Beckville TX,2787,32.245165,-94.455451
1531,Bedford Hills NY,6408,41.234439,-73.691517
1532,Bedford IA,2305,40.66829,-94.732448
1533,Bedford IN,27831,38.872881,-86.487072
1534,Bedford KY,5084,38.586363,-85.313331
1535,Bedford MA,13221,42.484287,-71.276796
1536,Bedford NH,21203,42.940307,-71.52127
1537,Bedford NY,5790,41.190913,-73.635548
1538,Bedford OH,29761,41.392067,-81.52315
1539,Bedford PA,12036,39.990838,-78.526071
1540,Bedford Park IL,55026,41.789703,-87.771927
1541,Bedford TX,46885,32.853579,-97.135797
1542,Bedford VA,18952,37.315345,-79.53311
1543,Bedford WY,666,42.932336,-110.95556
1544,Bedminster NJ,7621,40.657109,-74.643236
1545,Bedrock CO,55,38.384352,-108.953224
1546,Bee Branch AR,2197,35.423367,-92.408523
1547,Bee House TX,1062,31.403967,-98.055175
1548,Bee NE,351,41.000675,-97.074469
1549,Bee Spring KY,1207,37.29754,-86.279377
1550,Bee VA,406,37.101358,-82.185632
1551,Beebe AR,11986,35.093743,-91.907449
1552,Beebe River NH,3427,43.888507,-71.636142
1553,Beech Bluff TN,3204,35.592156,-88.639634
1554,Beech Creek KY,327,37.183704,-87.123854
1555,Beech Creek PA,2283,41.084507,-77.585118
1556,Beech Grove AR,633,36.183172,-90.618084
1557,Beech Grove IN,12774,39.715434,-86.093299
1558,Beech Island SC,32494,33.517766,-81.934794
1559,Beecher City IL,1886,39.183515,-88.80385
1560,Beecher Falls VT,188,45.006103,-71.519901
1561,Beecher IL,7797,41.34437,-87.611538
1562,Beechgrove TN,2259,35.644733,-86.204644
1563,Beechmont KY,793,37.177552,-87.03934
1564,Beedeville AR,60,35.420267,-91.106371
1565,Beeler KS,69,38.48113,-100.170957
1566,Beemer NE,1011,41.937422,-96.815008
1567,Beersheba Spring TN,889,35.470371,-85.682128
1568,Beeson WV,257,37.490894,-81.206215
1569,Beeville TX,27593,28.422246,-97.761571
1570,Beggs OK,4607,35.789595,-96.026398
1571,Bejou MN,294,47.44909,-95.945423
1572,Bel Air MD,63810,39.539367,-76.356431
1573,Bel Aire KS,14214,37.74548,-97.275915
1574,Bel Alton MD,1078,38.473141,-76.978873
1575,Belcamp MD,7062,39.475626,-76.242011
1576,Belcher KY,590,37.3137,-82.396536
1577,Belcher LA,644,32.754393,-93.850799
1578,Belchertown MA,14649,42.275103,-72.410953
1579,Belcourt ND,6486,48.837862,-99.768754
1580,Belden CA,44,39.921746,-121.325924
1581,Belden MS,4703,34.278663,-88.816011
1582,Belden ND,2330,48.319189,-102.392802
1583,Belden NE,198,42.402185,-97.195628
1584,Beldenville WI,1013,44.7721,-92.437202
1585,Belding MI,11015,43.088546,-85.231272
1586,Belews Creek NC,2647,36.226874,-80.092988
1587,Belfast ME,8806,44.435436,-69.014753
1588,Belfast NY,1766,42.320013,-78.094281
1589,Belfast TN,694,35.406905,-86.709482
1590,Belford NJ,6263,40.417281,-74.088887
1591,Belfry KY,3491,37.64011,-82.257301
1592,Belfry MT,410,45.049827,-109.078777
1593,Belgium WI,3330,43.499465,-87.850908
1594,Belgrade Lakes ME,349,44.511103,-69.863681
1595,Belgrade ME,2849,44.46875,-69.860636
1596,Belgrade MN,2365,45.486522,-94.969877
1597,Belgrade MO,1011,37.78886,-90.861308
1598,Belgrade MT,18182,45.780126,-111.143927
1599,Belgrade NE,313,41.461077,-98.086638
1600,Belhaven NC,4377,35.520493,-76.623574
1601,Belington WV,5570,39.024439,-79.949508
1602,Belknap IL,467,37.326584,-88.950652
1603,Bell Buckle TN,5036,35.638105,-86.394908
1604,Bell City LA,1440,30.114454,-92.94407
1605,Bell City MO,847,37.011608,-89.798417
1606,Bell FL,4730,29.78373,-82.871106
1607,Bell Gardens CA,101279,33.969177,-118.17205
1608,Bella Vista AR,11880,36.465086,-94.251969
1609,Bella Vista CA,1231,40.740945,-122.07245
1610,Bellaire KS,499,39.812839,-98.558148
1611,Bellaire MI,4131,44.976469,-85.226495
1612,Bellaire OH,8678,40.020399,-80.763813
1613,Bellaire TX,17491,29.702313,-95.461106
1614,Bellbrook OH,10712,39.640187,-84.08245
1615,Belle Center OH,3104,40.502371,-83.768773
1616,Belle Chasse LA,15590,29.834514,-90.004177
1617,Belle Creek MT,1164,45.46057,-105.424968
1618,Belle Fourche SD,8007,44.672281,-103.839601
1619,Belle Glade FL,21427,26.684289,-80.672392
1620,Belle Haven VA,1088,37.56448,-75.869443
1621,Belle Mead NJ,11317,40.467732,-74.628993
1622,Belle MO,3515,38.271108,-91.730299
1623,Belle Plaine IA,3153,41.899159,-92.257381
1624,Belle Plaine KS,3145,37.405155,-97.285221
1625,Belle Plaine MN,8925,44.613852,-93.760394
1626,Belle Rive IL,1089,38.215268,-88.755801
1627,Belle Rose LA,4449,30.025955,-91.044351
1628,Belle View VA,9581,38.77056,-77.062511
1629,Bellefontaine OH,19240,40.360472,-83.757076
1630,Bellerose NY,17590,40.734735,-73.723018
1631,Belleview MO,882,37.681981,-90.799075
1632,Belleville AR,1876,35.103762,-93.451817
1633,Belleville IL,65922,38.512677,-89.984693
1634,Belleville KS,2563,39.824054,-97.629016
1635,Belleville MI,42313,42.194858,-83.485425
1636,Belleville NJ,35897,40.79458,-74.163119
1637,Belleville PA,5000,40.601571,-77.735823
1638,Belleville WI,5262,42.866906,-89.53773
1639,Belleville WV,1415,39.131417,-81.692316
1640,Bellevue IA,5120,42.25825,-90.435603
1641,Bellevue ID,3625,43.439694,-114.249804
1642,Bellevue KY,5955,39.102431,-84.478746
1643,Bellevue MI,6182,42.452474,-85.048867
1644,Bellevue NE,22132,41.149663,-95.909932
1645,Bellevue OH,12867,41.268432,-82.85765
1646,Bellevue PA,19685,40.501321,-80.066966
1647,Bellevue TN,36610,36.071512,-86.943674
1648,Bellevue TX,1119,33.58789,-98.157373
1649,Bellevue VA,24440,37.604181,-77.446309
1650,Bellevue WA,103378,47.614961,-122.166288
1651,Bellflower CA,76615,33.886676,-118.126527
1652,Bellflower IL,536,40.340091,-88.522702
1653,Bellflower MO,783,39.0012,-91.348915
1654,Bellingham MA,16332,42.074573,-71.476829
1655,Bellingham MN,531,45.155626,-96.32235
1656,Bellingham WA,87407,48.748957,-122.488676
1657,Bellmawr NJ,11584,39.868878,-75.094368
1658,Bellmead TX,37162,31.575701,-97.126742
1659,Bellona NY,132,42.755442,-77.021737
1660,Bellows Falls VT,4643,43.148198,-72.466373
1661,Bellport NY,10401,40.77327,-72.946891
1662,Bells TN,5207,35.71976,-89.072857
1663,Bells TX,3136,33.617817,-96.423668
1664,Bellville OH,8051,40.613604,-82.517516
1665,Bellville TX,9585,29.96583,-96.253083
1666,Bellvue CO,2185,40.626528,-105.260977
1667,Bellwood IL,19038,41.882484,-87.878557
1668,Bellwood NE,1062,41.347389,-97.274657
1669,Bellwood PA,2806,40.60394,-78.337234
1670,Belmond IA,3032,42.851137,-93.620012
1671,Belmont CA,25992,37.517433,-122.292671
1672,Belmont KS,4354,37.636246,-98.109295
1673,Belmont LA,216,31.709956,-93.495863
1674,Belmont MI,9244,43.077934,-85.586769
1675,Belmont MS,2733,34.51025,-88.230912
1676,Belmont NC,20048,35.244029,-81.044016
1677,Belmont NH,7430,43.451189,-71.488991
1678,Belmont NY,2520,42.233409,-78.01103
1679,Belmont OH,3209,40.03202,-81.006564
1680,Belmont VT,302,43.428441,-72.825701
1681,Belmont WI,1482,42.730784,-90.335881
1682,Beloit OH,3987,40.895678,-80.989669
1683,Belpre KS,193,37.934655,-99.09357
1684,Belpre OH,9951,39.286772,-81.596795
1685,Belt MT,1747,47.38211,-110.908099
1686,Belton KY,1276,37.151056,-86.977369
1687,Belton MO,27260,38.816118,-94.532785
1688,Belton SC,18367,34.508715,-82.510106
1689,Belton TX,34172,31.072298,-97.472025
1690,Beltrami MN,279,47.572118,-96.454864
1691,Beltsville MD,26188,39.045524,-76.924168
1692,Belva WV,401,38.249105,-81.156572
1693,Belvedere CA,12474,37.889885,-122.472627
1694,Belvidere IL,34311,42.259465,-88.850943
1695,Belvidere NC,1130,36.309644,-76.543586
1696,Belvidere NE,129,40.25101,-97.555416
1697,Belvidere NJ,7571,40.830819,-75.050261
1698,Belvidere SD,167,43.886031,-101.238691
1699,Belvidere TN,2760,35.141499,-86.172827
1700,Belview MN,725,44.605486,-95.317757
1701,Belvue KS,479,39.2273,-96.186635
1702,Belzoni MS,6258,33.18421,-90.492435
1703,Bement IL,1971,39.922207,-88.56877
1704,Bemidji MN,32225,47.488071,-94.848809
1705,Bemis SD,483,44.886232,-96.811368
1706,Bemiss GA,34702,30.890268,-83.273299
1707,Bemus Point NY,3342,42.151346,-79.35808
1708,Ben Franklin TX,144,33.474146,-95.759107
1709,Ben Lomond CA,6311,37.086183,-122.083869
1710,Ben Wheeler TX,5783,32.412588,-95.637085
1711,Bena MN,356,47.347732,-94.251921
1712,Benbrook TX,19395,32.670023,-97.464141
1713,Bend OR,99576,44.092788,-121.293632
1714,Bend TX,35,31.11231,-98.482102
1715,Bendena KS,286,39.717379,-95.176458
1716,Benedict KS,177,37.651401,-95.624213
1717,Benedict ND,147,47.786493,-101.057884
1718,Benedict NE,447,41.003268,-97.602921
1719,Benedicta ME,221,45.812484,-68.408855
1720,Benezett PA,164,41.325318,-78.357621
1721,Benge WA,61,46.867636,-117.969895
1722,Benham KY,337,36.957377,-82.909399
1723,Benicia CA,27088,38.068459,-122.161392
1724,Benkelman NE,1348,40.098049,-101.534354
1725,Benld IL,1810,39.093903,-89.803057
1726,Bennet NE,1495,40.63822,-96.5134
1727,Bennett CO,5514,39.725398,-104.427284
1728,Bennett IA,798,41.735267,-90.965613
1729,Bennett NC,1676,35.567269,-79.522524
1730,Bennettsville SC,19514,34.625501,-79.689826
1731,Bennington IN,1277,38.875993,-85.071897
1732,Bennington KS,1366,39.02239,-97.603121
1733,Bennington NE,7612,41.362262,-96.157525
1734,Bennington NH,1491,43.010309,-71.91534
1735,Bennington OK,1729,33.977085,-96.018774
1736,Bennington VT,14851,42.882658,-73.192321
1737,Benoit MS,998,33.644795,-91.033765
1738,Bensalem PA,55493,40.110881,-74.937753
1739,Bensenville IL,20309,41.950145,-87.944973
1740,Benson AZ,9464,31.98826,-110.294113
1741,Benson IL,720,40.83058,-89.116501
1742,Benson MN,4693,45.312904,-95.576644
1743,Benson NC,14566,35.403661,-78.54213
1744,Bent Mountain VA,872,37.206793,-80.145501
1745,Bent NM,210,33.148014,-105.863472
1746,Bentley KS,530,37.879582,-97.516381
1747,Bentley LA,933,31.466035,-92.49273
1748,Bentley MI,1158,43.886028,-84.144738
1749,Bentley ND,415,46.374448,-101.89369
1750,Bentley Springs MD,6967,39.649937,-76.677591
1751,Bentleyville PA,3788,40.118702,-80.006987
1752,Benton AL,1165,32.281924,-86.859867
1753,Benton AR,27307,34.580087,-92.595241
1754,Benton CA,277,37.798099,-118.498526
1755,Benton City MO,249,39.120886,-91.766124
1756,Benton City WA,9201,46.280624,-119.491349
1757,Benton Harbor MI,31814,42.108594,-86.423417
1758,Benton IA,92,40.725836,-94.393104
1759,Benton IL,11265,37.99998,-88.922659
1760,Benton KS,2294,37.794615,-97.097117
1761,Benton KY,19305,36.880649,-88.354773
1762,Benton LA,12158,32.697617,-93.69095
1763,Benton MO,3310,37.069674,-89.566404
1764,Benton MS,2193,32.815772,-90.281516
1765,Benton PA,4860,41.223142,-76.340632
1766,Benton Station ME,6645,44.609639,-69.63321
1767,Benton TN,4870,35.172953,-84.654433
1768,Benton WI,1306,42.534901,-90.338045
1769,Bentonia MS,3295,32.700015,-90.372156
1770,Bentonville AR,40933,36.357703,-94.22242
1771,Benwood WV,1755,40.013299,-80.71603
1772,Benzonia MI,1974,44.595502,-86.096091
1773,Beowawe NV,482,40.462398,-116.477387
1774,Berea KY,23774,37.579942,-84.274919
1775,Berea OH,19161,41.367557,-81.861756
1776,Berea WV,83,39.130452,-80.922322
1777,Beresford SD,3356,43.087409,-96.781256
1778,Bergen ND,227,47.951793,-100.803824
1779,Bergen NY,3817,43.086937,-77.96033
1780,Bergenfield NJ,26761,40.923837,-73.998918
1781,Berger MO,779,38.644449,-91.337412
1782,Bergheim TX,1183,29.839873,-98.593258
1783,Bergholz OH,1574,40.47771,-80.886153
1784,Bergland MI,385,46.588124,-89.597296
1785,Bergton VA,500,38.792509,-78.966752
1786,Berkeley CA,92933,37.865611,-122.285126
1787,Berkeley Heights NJ,12246,40.67522,-74.434599
1788,Berkeley MO,13932,38.739614,-90.337834
1789,Berkey OH,1094,41.698892,-83.830972
1790,Berkley MA,6411,41.835325,-71.076534
1791,Berkley MI,14970,42.502755,-83.188683
1792,Berkshire NY,2338,42.307435,-76.192008
1793,Berlin Center OH,2892,41.024319,-80.934104
1794,Berlin CT,18565,41.620826,-72.770482
1795,Berlin Heights OH,2929,41.320519,-82.477713
1796,Berlin MA,2866,42.384438,-71.635634
1797,Berlin MD,22550,38.347514,-75.186557
1798,Berlin MI,3285,42.919864,-82.886809
1799,Berlin ND,145,46.400834,-98.523342
1800,Berlin NH,10051,44.48107,-71.189236
1801,Berlin NJ,12854,39.778839,-74.930808
1802,Berlin NY,929,42.691893,-73.370186
1803,Berlin PA,5368,39.918847,-78.963692
1804,Berlin WI,8733,43.976936,-88.949009
1805,Bern ID,137,42.319144,-111.392595
1806,Bern KS,434,39.957051,-95.961028
1807,Bernalillo NM,10136,35.328506,-106.530873
1808,Bernard IA,1456,42.33207,-90.863032
1809,Bernard ME,589,44.241543,-68.35803
1810,Bernardsville NJ,7534,40.72251,-74.577812
1811,Berne NY,2196,42.610848,-74.146577
1812,Bernhards Bay NY,1350,43.271722,-75.937299
1813,Bernice LA,3481,32.821024,-92.626269
1814,Bernice OK,7258,36.630072,-94.907491
1815,Bernie MO,2867,36.672703,-89.987758
1816,Bernville PA,7356,40.455061,-76.124732
1817,Beroun MN,9348,45.832273,-92.982604
1818,Berrien Center MI,1563,41.948439,-86.285039
1819,Berrien Springs MI,11082,41.948002,-86.354013
1820,Berry AL,3901,33.694485,-87.622563
1821,Berry Creek CA,1441,39.638394,-121.385467
1822,Berry IL,5686,39.759047,-89.547208
1823,Berry KY,2786,38.515974,-84.361118
1824,Berryman MO,5854,37.962998,-91.329337
1825,Berrysburg PA,368,40.60199,-76.811207
1826,Berryton KS,2997,38.944182,-95.582487
1827,Berryville AR,10441,36.351908,-93.558725
1828,Berryville VA,8757,39.153178,-77.968759
1829,Bertha MN,1380,46.251457,-95.035733
1830,Berthoud CO,10296,40.299333,-105.105459
1831,Bertram TX,4952,30.741082,-98.052932
1832,Bertrand MO,1247,36.892746,-89.448259
1833,Bertrand NE,1164,40.560843,-99.575891
1834,Berwick IL,259,40.779911,-90.505913
1835,Berwick LA,4979,29.698786,-91.205662
1836,Berwick ME,7246,43.28992,-70.855038
1837,Berwick ND,1124,48.377657,-100.412322
1838,Berwick PA,19320,41.066477,-76.244269
1839,Berwyn PA,11539,40.041184,-75.447457
1840,Beryl UT,835,37.96005,-113.619586
1841,Bessemer AL,27139,33.409002,-86.947547
1842,Bessemer City NC,13463,35.284904,-81.28635
1843,Bessemer MI,2744,46.480188,-90.051544
1844,Bessemer PA,1571,40.975493,-80.493689
1845,Bessie OK,266,35.38545,-98.989638
1846,Best TX,3390,31.240592,-101.478776
1847,Bethalto IL,11186,38.907353,-90.034447
1848,Bethanna KY,11979,37.763499,-83.055443
1849,Bethany Beach DE,2768,38.531009,-75.067396
1850,Bethany CT,5563,41.426194,-73.000704
1851,Bethany IL,1920,39.634754,-88.754301
1852,Bethany LA,1141,32.366179,-94.003394
1853,Bethany MO,4585,40.260055,-94.018863
1854,Bethany OK,19800,35.504315,-97.639856
1855,Bethany WV,1243,40.202,-80.55463
1856,Bethel CT,18581,41.381298,-73.400827
1857,Bethel DE,211,38.568517,-75.624298
1858,Bethel Heights AR,50230,36.177918,-94.104682
1859,Bethel ME,3312,44.416176,-70.803685
1860,Bethel MO,687,39.892199,-92.031619
1861,Bethel NC,2593,35.790885,-77.374765
1862,Bethel NY,172,41.669326,-74.893984
1863,Bethel OH,12349,38.94236,-84.09195
1864,Bethel OK,377,34.358443,-94.878126
1865,Bethel PA,3280,40.480834,-76.274209
1866,Bethel Park PA,29529,40.320984,-80.039793
1867,Bethel Springs TN,3876,35.228893,-88.643972
1868,Bethel VT,2664,43.819464,-72.652807
1869,Bethelridge KY,463,37.22459,-84.778971
1870,Bethesda MD,43850,39.000343,-77.102165
1871,Bethesda OH,2601,40.019221,-81.076742
1872,Bethlehem CT,3577,41.638683,-73.209098
1873,Bethlehem GA,12486,33.926116,-83.728227
1874,Bethlehem KY,166,38.402433,-85.064874
1875,Bethlehem NH,2526,44.280846,-71.682929
1876,Bethlehem PA,65245,40.600167,-75.380507
1877,Bethpage NY,22658,40.740014,-73.485727
1878,Bethpage TN,5469,36.518575,-86.314572
1879,Bethton PA,13812,40.312796,-75.321339
1880,Bethune CO,453,39.344771,-102.428142
1881,Bethune SC,2440,34.42012,-80.366206
1882,Betsy Layne KY,637,37.531593,-82.700249
1883,Bettendorf IA,34754,41.550865,-90.494201
1884,Betterton MD,378,39.365509,-76.063938
1885,Bettles Field AK,30,67.100495,-151.062414
1886,Beulah CO,1236,38.083712,-104.97245
1887,Beulah MI,3363,44.646002,-86.038346
1888,Beulah MO,91,37.644469,-91.878714
1889,Beulah MS,532,33.787954,-90.979545
1890,Beulah ND,3619,47.270664,-101.807468
1891,Beulah WY,264,44.573575,-104.153095
1892,Beulaville NC,7909,34.933962,-77.769655
1893,Beverly Hills CA,41730,34.090107,-118.406477
1894,Beverly Hills TX,9042,31.519863,-97.150254
1895,Beverly KS,316,38.984416,-97.981785
1896,Beverly KY,171,36.944179,-83.556031
1897,Beverly MA,39502,42.560825,-70.875939
1898,Beverly NJ,11539,40.056452,-74.911363
1899,Beverly OH,2630,39.571435,-81.634588
1900,Beverly WA,531,46.848429,-119.912074
1901,Beverly WV,3490,38.828021,-79.865121
1902,Bevier MO,1322,39.749707,-92.561925
1903,Bevington IA,44,41.371763,-93.812865
1904,Bevinsville KY,656,37.338488,-82.712468
1905,Bexar AR,63,36.306103,-91.985998
1906,Bexley OH,27228,39.958999,-82.926595
1907,Bible Grove IL,2981,38.811856,-88.510046
1908,Bickleton WA,217,45.959687,-120.104223
1909,Bicknell IN,3981,38.77272,-87.313718
1910,Biddeford Pool ME,96,43.442722,-70.352024
1911,Biddle MT,112,45.256977,-105.290138
1912,Bidwell OH,5080,38.927647,-82.270092
1913,Bienville LA,739,32.252323,-92.908402
1914,Big Arm MT,356,47.758514,-114.207049
1915,Big Bar CA,239,40.74796,-123.229006
1916,Big Bear City CA,10162,34.242233,-116.920412
1917,Big Bend Nationa TX,200,29.147657,-103.330626
1918,Big Bend WI,3724,42.888463,-88.212182
1919,Big Bend WV,644,38.971941,-81.13603
1920,Big Cabin OK,1972,36.607931,-95.274736
1921,Big Chimney WV,15078,38.383178,-81.623876
1922,Big Clifty KY,1855,37.527801,-86.139498
1923,Big Cove AL,14216,34.612859,-86.466577
1924,Big Cove Tannery PA,702,39.889704,-78.012366
1925,Big Creek KY,467,37.14168,-83.633095
1926,Big Creek MS,552,33.851359,-89.437833
1927,Big Creek WV,477,38.004555,-82.016056
1928,Big Falls MN,309,48.156028,-93.729629
1929,Big Flat AR,198,36.006824,-92.391681
1930,Big Flats NY,1931,42.145509,-76.952721
1931,Big Island VA,1593,37.530556,-79.382706
1932,Big Lake MN,18208,45.350648,-93.739917
1933,Big Laurel KY,99,37.002795,-83.156468
1934,Big Otter WV,957,38.530476,-81.033506
1935,Big Pine CA,1763,37.167857,-118.291597
1936,Big Pine Key FL,4313,24.679996,-81.362029
1937,Big Pool MD,1029,39.645685,-78.010449
1938,Big Prairie OH,2025,40.618777,-82.072048
1939,Big Rapids MI,20112,43.689679,-85.479705
1940,Big River CA,1539,34.149142,-114.33928
1941,Big Rock IA,633,41.735013,-90.778332
1942,Big Rock IL,1793,41.759308,-88.537617
1943,Big Rock KY,947,37.043019,-83.227006
1944,Big Rock TN,1811,36.571606,-87.737838
1945,Big Sandy MT,1030,48.149677,-110.07762
1946,Big Sandy TN,3308,36.228515,-88.062732
1947,Big Sandy TX,5719,32.61682,-95.088034
1948,Big Spring MD,5545,39.661693,-77.912592
1949,Big Springs NE,619,41.069621,-102.093273
1950,Big Stone City SD,1044,45.28504,-96.561434
1951,Big Stone Gap VA,11265,36.858073,-82.762727
1952,Big Sur CA,1369,36.245798,-121.700897
1953,Big Timber MT,3027,45.82827,-109.963094
1954,Big Water UT,5556,37.072085,-112.345374
1955,Big Wells TX,786,28.569344,-99.578083
1956,Bigelow AR,3268,34.984659,-92.630842
1957,Bigelow MN,399,43.533612,-95.651527
1958,Bigelow MO,792,40.193873,-95.377047
1959,Bigfoot TX,817,29.053073,-98.85823
1960,Bigfork MN,1681,47.750227,-93.670699
1961,Biggers AR,598,36.342978,-90.784467
1962,Biggs CA,3155,39.414918,-121.695873
1963,Biggs IL,647,40.235482,-89.846447
1964,Biggs KY,384,37.361002,-82.257466
1965,Biggsville IL,673,40.853122,-90.856057
1966,Bighorn MT,102,46.238286,-107.205942
1967,Biglerville PA,5899,39.928119,-77.288549
1968,Billerica MA,30310,42.551874,-71.251754
1969,Billings Heights MT,29624,45.828443,-108.474726
1970,Billings MO,5239,37.062841,-93.547629
1971,Billings MT,98501,45.774489,-108.500452
1972,Billings OK,702,36.524609,-97.418889
1973,Billingsley AL,1313,32.610578,-86.716301
1974,Biloxi MS,25822,30.403478,-88.897143
1975,Bim WV,305,37.893437,-81.688047
1976,Bimble KY,896,36.886751,-83.828179
1977,Binford ND,440,47.573899,-98.354625
1978,Binger OK,1264,35.310593,-98.314797
1979,Bingham Canyon UT,826,40.564614,-112.097718
1980,Bingham IL,284,39.14667,-89.195789
1981,Bingham Lake MN,421,43.894155,-95.04571
1982,Bingham ME,1713,45.068241,-69.885721
1983,Bingham NE,53,42.260651,-102.133075
1984,Binghamton NY,76141,42.146307,-75.886517
1985,Birch Harbor ME,183,44.384195,-68.031686
1986,Birch Island ME,20278,43.897591,-69.955469
1987,Birch River WV,1090,38.491424,-80.745873
1988,Birch Run MI,9471,43.264868,-83.790287
1989,Birch Tree MO,2980,36.947589,-91.50082
1990,Birchdale MN,197,48.624696,-94.167652
1991,Birchleaf VA,895,37.169481,-82.248346
1992,Birchwood TN,2772,35.351968,-84.961835
1993,Birchwood WI,2188,45.640296,-91.577564
1994,Bird City KS,675,39.757941,-101.531875
1995,Bird In Hand PA,1785,40.056109,-76.183036
1996,Bird Island MN,1519,44.750729,-94.871634
1997,Birds Landing CA,108,38.150402,-121.844318
1998,Birdsboro PA,15725,40.256304,-75.834373
1999,Birdseye IN,1841,38.30058,-86.710193
2000,Birdsnest VA,769,37.432077,-75.904347
2001,Birmingham AL,179743,33.520994,-86.806626
2002,Birmingham IA,888,40.862605,-91.953431
2003,Birmingham MI,20107,42.544396,-83.213255
2004,Birnamwood WI,3404,44.926896,-89.212433
2005,Birney MT,249,45.286204,-106.509496
2006,Bisbee AZ,7155,31.408557,-109.911736
2007,Bisbee ND,226,48.555196,-99.363592
2008,Biscoe AR,726,34.833706,-91.490028
2009,Biscoe NC,3933,35.325654,-79.759555
2010,Bishop GA,5109,33.808091,-83.477655
2011,Bishop TX,4525,27.588564,-97.783031
2012,Bishopville MD,2852,38.429609,-75.185544
2013,Bishopville SC,13491,34.224101,-80.274988
2014,Bismarck AR,4487,34.311033,-93.187236
2015,Bismarck IL,1157,40.255187,-87.613769
2016,Bismarck ND,28055,46.823448,-100.774755
2017,Bison KS,415,38.519332,-99.198634
2018,Bison OK,265,36.196222,-97.880484
2019,Bison SD,515,45.516126,-102.482707
2020,Bitely MI,1843,43.732132,-85.877799
2021,Bittinger MD,141,39.597786,-79.214247
2022,Bivalve MD,380,38.295337,-75.89141
2023,Bivins TX,1611,32.96602,-94.140406
2024,Bixby MO,259,37.672244,-91.083461
2025,Bixby OK,22461,35.917291,-95.872895
2026,Blachly OR,521,44.196597,-123.534816
2027,Black AL,595,31.01318,-85.745634
2028,Black Butte Ranc OR,6294,44.307329,-121.524133
2029,Black Creek NY,487,42.285528,-78.231249
2030,Black Diamond WA,5025,47.311372,-122.005265
2031,Black Eagle MT,904,47.526197,-111.276366
2032,Black Earth WI,2268,43.132213,-89.738974
2033,Black Hawk CO,4326,39.801105,-105.503991
2034,Black Hawk SD,6307,44.151173,-103.348634
2035,Black Lick PA,683,40.466905,-79.193231
2036,Black MO,457,37.547275,-90.991735
2037,Black Mountain S NC,13209,35.612494,-82.325087
2038,Black Oak AR,443,35.835851,-90.354227
2039,Black River Fall WI,10742,44.292101,-90.847952
2040,Black River MI,411,44.813842,-83.34071
2041,Black River NY,2852,44.004156,-75.795777
2042,Black Rock AR,1346,36.114874,-91.117629
2043,Black TX,5309,34.640298,-102.719139
2044,Blackburn MO,417,39.098776,-93.428124
2045,Blackduck MN,2117,47.738136,-94.496072
2046,Blackfoot ID,27021,43.194327,-112.361545
2047,Blacklick OH,22727,40.020952,-82.807857
2048,Blackridge VA,3348,36.68609,-78.095251
2049,Blackshear GA,14735,31.293063,-82.261708
2050,Blackstock SC,1891,34.577876,-81.124857
2051,Blackstone IL,282,41.071945,-88.649782
2052,Blackstone MA,9026,42.028708,-71.52691
2053,Blackstone VA,7214,37.091578,-77.985063
2054,Blacksville WV,346,39.695821,-80.232646
2055,Blackville SC,4913,33.364476,-81.271844
2056,Blackwater Bridg VA,4289,36.624793,-76.037816
2057,Blackwater MO,587,38.972659,-92.968291
2058,Blackwater VA,938,36.639011,-82.98658
2059,Blackwell MO,1037,38.071694,-90.709538
2060,Blackwell OK,7709,36.800574,-97.286695
2061,Blackwell TX,730,32.082044,-100.311078
2062,Bladen NE,426,40.298996,-98.604625
2063,Bladenboro NC,9229,34.565832,-78.779295
2064,Bladensburg MD,9313,38.945215,-76.920327
2065,Blain PA,1052,40.329314,-77.511736
2066,Blaine KS,1646,39.416545,-96.411402
2067,Blaine KY,1039,38.026974,-82.851347
2068,Blaine MN,28823,45.168083,-93.242557
2069,Blaine TN,3732,36.15832,-83.678272
2070,Blaine WA,15710,48.963572,-122.732327
2071,Blair NE,12285,41.545376,-96.161666
2072,Blair OK,2133,34.778813,-99.333404
2073,Blair SC,1738,34.496668,-81.345945
2074,Blair WI,2601,44.296843,-91.223501
2075,Blairs Mill KY,10985,37.949746,-83.279926
2076,Blairs Mills PA,639,40.254804,-77.769473
2077,Blairs VA,3027,36.667408,-79.378869
2078,Blairsburg IA,490,42.493725,-93.659444
2079,Blairstown IA,1074,41.906338,-92.082861
2080,Blairstown MO,467,38.522701,-93.964102
2081,Blairstown NJ,9555,40.967386,-74.965097
2082,Blairsville GA,19490,34.876253,-83.992027
2083,Blairsville PA,10847,40.441262,-79.253329
2084,Blaisdell ND,1040,48.323399,-101.800562
2085,Blakesburg IA,967,40.984763,-92.594037
2086,Blakeslee PA,5008,41.048502,-75.534309
2087,Blanca CO,805,37.431702,-105.517784
2088,Blanch NC,2580,36.533839,-79.304185
2089,Blanchard IA,173,40.612156,-95.205377
2090,Blanchard ID,1254,48.022344,-116.990865
2091,Blanchard MI,3016,43.522778,-85.058856
2092,Blanchard ND,102,47.353664,-97.262079
2093,Blanchard OK,17563,35.119215,-97.640131
2094,Blanchardville WI,2152,42.806186,-89.855511
2095,Blanchester OH,9236,39.303442,-83.973977
2096,Blanco NM,966,36.725612,-107.795276
2097,Blanco OK,174,34.762151,-95.792069
2098,Blanco TX,5205,30.087359,-98.410663
2099,Bland MO,2252,38.307383,-91.626334
2100,Bland VA,3774,37.137644,-81.020064
2101,Blandford MA,1263,42.182949,-72.936114
2102,Blanding UT,4672,37.586342,-109.486599
2103,Blandinsville IL,1067,40.551585,-90.859521
2104,Blandon PA,7639,40.443492,-75.883681
2105,Blanket TX,1370,31.78819,-98.831089
2106,Blasdell NY,11536,42.790039,-78.822228
2107,Blauvelt NY,5532,41.062597,-73.962924
2108,Blawnox PA,13162,40.515077,-79.877423
2109,Bleiblerville TX,323,29.967572,-96.418719
2110,Blencoe IA,357,41.923662,-96.082663
2111,Blenheim SC,829,34.502033,-79.659422
2112,Blessing TX,1512,28.864947,-96.217956
2113,Blevins AR,645,33.875468,-93.536035
2114,Bliss ID,898,42.944859,-114.910387
2115,Bliss NY,1688,42.579936,-78.258084
2116,Blissfield MI,5545,41.827636,-83.877257
2117,Block Island RI,1051,41.171546,-71.574825
2118,Blockton IA,457,40.624242,-94.504901
2119,Blodgett OR,961,44.628141,-123.606715
2120,Bloom KS,1081,37.42454,-99.960358
2121,Bloomburg TX,1133,33.133859,-94.064688
2122,Bloomdale OH,1562,41.181489,-83.572356
2123,Bloomer WI,7174,45.102477,-91.489974
2124,Bloomery WV,443,39.328606,-78.381561
2125,Bloomfield CT,20486,41.831647,-72.72493
2126,Bloomfield IA,7098,40.732368,-92.398712
2127,Bloomfield IN,9525,39.029542,-86.867549
2128,Bloomfield KY,3476,37.907979,-85.286209
2129,Bloomfield MO,4409,36.898892,-89.945564
2130,Bloomfield MT,150,47.340813,-104.878235
2131,Bloomfield NE,1765,42.597824,-97.654494
2132,Bloomfield NJ,47312,40.803456,-74.189074
2133,Bloomfield NM,16792,36.695475,-107.978437
2134,Bloomfield NY,6220,42.885101,-77.459983
2135,Bloomfield PA,10141,40.464215,-79.945445
2136,Bloomfield Towns MI,45496,42.545044,-83.2771
2137,Blooming Grove TX,1563,32.075839,-96.700991
2138,Blooming Prairie MN,3696,43.897732,-93.06081
2139,Bloomingburg NY,6627,41.564427,-74.430351
2140,Bloomingburg OH,1685,39.628617,-83.409521
2141,Bloomingdale GA,7853,32.117654,-81.308465
2142,Bloomingdale IL,22735,41.94827,-88.07824
2143,Bloomingdale IN,1040,39.834808,-87.255967
2144,Bloomingdale MI,2186,42.384232,-85.956757
2145,Bloomingdale NJ,7603,41.012845,-74.333756
2146,Bloomingdale NY,1157,44.398477,-74.08293
2147,Bloomingdale OH,3631,40.3742,-80.807214
2148,Bloomingdale TN,40038,36.552766,-82.554034
2149,Bloomingrose WV,586,38.141189,-81.636737
2150,Bloomington CA,30830,34.066198,-117.399295
2151,Bloomington IL,72086,40.478295,-88.989318
2152,Bloomington IN,92992,39.140057,-86.508262
2153,Bloomington MD,286,39.487764,-79.113707
2154,Bloomington MN,82887,44.837284,-93.276034
2155,Bloomington NE,160,40.138257,-99.009438
2156,Bloomington NY,497,41.856165,-74.066889
2157,Bloomington Spri TN,1474,36.219454,-85.64786
2158,Bloomington TX,2616,28.68898,-96.884076
2159,Bloomington WI,1372,42.872598,-90.909905
2160,Bloomsburg PA,30967,41.011528,-76.438379
2161,Bloomsbury NJ,2771,40.64366,-75.09664
2162,Bloomsdale MO,2937,38.045112,-90.280548
2163,Bloomville NY,953,42.352236,-74.807118
2164,Bloomville OH,2644,41.018206,-82.989874
2165,Blossburg PA,1776,41.669771,-77.079711
2166,Blossom TX,2893,33.694547,-95.382341
2167,Blossvale NY,3625,43.230293,-75.687313
2168,Blount WV,230,38.312116,-81.405194
2169,Blounts Creek NC,1676,35.382029,-76.925004
2170,Blountstown FL,7994,30.4394,-85.062022
2171,Blountsville AL,7933,34.092937,-86.568628
2172,Blountville TN,14251,36.53562,-82.365558
2173,Blowing Rock NC,3412,36.094594,-81.750968
2174,Bloxom VA,2106,37.827264,-75.615568
2175,Blue AZ,41,33.651245,-109.06849
2176,Blue Creek OH,1559,38.756451,-83.35268
2177,Blue Diamond KY,1043,37.310812,-83.228579
2178,Blue Earth MN,4531,43.639426,-94.092379
2179,Blue Eye MO,1969,36.54321,-93.429944
2180,Blue Grass IA,4468,41.511168,-90.738015
2181,Blue Grass VA,178,38.515231,-79.561272
2182,Blue Hill ME,2579,44.434265,-68.588513
2183,Blue Hill NE,1461,40.31102,-98.426955
2184,Blue Island IL,25460,41.658187,-87.679465
2185,Blue Lake CA,1733,40.928701,-123.896696
2186,Blue Mound IL,1766,39.697813,-89.113558
2187,Blue Mound KS,606,38.090772,-95.005269
2188,Blue Mounds WI,1752,43.004964,-89.834455
2189,Blue Mountain AR,47,35.130386,-93.716797
2190,Blue Mountain La NY,150,43.837499,-74.429831
2191,Blue Mountain MS,3542,34.670986,-89.008775
2192,Blue Point NY,4752,40.750089,-73.035213
2193,Blue Rapids KS,1292,39.674974,-96.63595
2194,Blue Ridge GA,11172,34.855523,-84.328087
2195,Blue Ridge Summi PA,1089,39.726951,-77.469836
2196,Blue Ridge TX,3297,33.306135,-96.390056
2197,Blue Ridge VA,4963,37.388542,-79.817178
2198,Blue River KY,318,37.648097,-82.827361
2199,Blue River WI,1330,43.236567,-90.587312
2200,Blue Rock OH,1300,39.799996,-81.891023
2201,Blue Springs MO,24797,39.015186,-94.260429
2202,Blue Springs MS,3970,34.427286,-88.859004
2203,Blue Springs NE,526,40.140684,-96.659037
2204,Bluebell UT,740,40.351728,-110.294122
2205,Bluefield VA,9301,37.249512,-81.325114
2206,Bluejacket OK,1221,36.797453,-95.101844
2207,Bluewater NM,799,35.164724,-108.191663
2208,Bluewell WV,20786,37.279788,-81.229023
2209,Bluff City AR,87,33.698191,-93.186811
2210,Bluff City KS,149,37.083846,-97.875412
2211,Bluff City TN,12747,36.477391,-82.236181
2212,Bluff Dale TX,1416,32.401791,-98.163775
2213,Bluff Park AL,31471,33.403675,-86.831257
2214,Bluff Point NY,1595,42.601032,-77.105197
2215,Bluffton AR,187,34.901635,-93.591946
2216,Bluffton IN,14645,40.736837,-85.162199
2217,Bluffton MN,388,46.491795,-95.223592
2218,Bluffton OH,6736,40.878978,-83.891397
2219,Bluffton SC,33954,32.251275,-80.872079
2220,Bluffton TX,166,30.825633,-98.51503
2221,Bluford IL,2124,38.353138,-88.75872
2222,Blum TX,1601,32.105183,-97.365183
2223,Blunt SD,463,44.502572,-99.946278
2224,Blythe GA,2734,33.294088,-82.203044
2225,Blythedale MO,356,40.502352,-93.895447
2226,Blytheville A F AR,23966,35.934482,-89.922497
2227,Blythewood SC,16393,34.191112,-80.975756
2228,Boalsburg PA,3991,40.779344,-77.782236
2229,Boardman OH,34424,41.031985,-80.666629
2230,Boardman OR,4159,45.827165,-119.72057
2231,Boaz AL,15693,34.173686,-86.148003
2232,Boaz KY,2291,36.929974,-88.622288
2233,Bob White WV,381,37.958711,-81.720884
2234,Boca Raton FL,193781,26.344605,-80.210942
2235,Bock MN,106,45.784427,-93.553658
2236,Bode IA,624,42.866078,-94.278055
2237,Bodega Bay CA,1411,38.330921,-123.037308
2238,Bodega CA,425,38.339264,-122.951364
2239,Bodfish CA,2113,35.587046,-118.484656
2240,Boelus NE,391,41.100278,-98.697551
2241,Bogalusa LA,20033,30.773303,-89.865329
2242,Bogard MO,600,39.499354,-93.537387
2243,Bogart GA,10344,33.934038,-83.50546
2244,Bogata TX,2456,33.469862,-95.193725
2245,Boger City NC,38570,35.482138,-81.228039
2246,Boggstown IN,500,39.568331,-85.915965
2247,Bogota NJ,8187,40.874441,-74.028122
2248,Bogue Chitto MS,6519,31.456344,-90.473183
2249,Bogue KS,257,39.378221,-99.67882
2250,Bohannon VA,345,37.390457,-76.36136
2251,Bohemia NY,10700,40.767788,-73.116339
2252,Boiceville NY,673,42.004761,-74.265808
2253,Boiling Spring L NC,16126,34.012137,-78.045551
2254,Boiling Springs PA,5591,40.144873,-77.119489
2255,Bois D Arc MO,1354,37.221417,-93.544722
2256,Boise City OK,1697,36.728328,-102.535519
2257,Boise ID,193031,43.632237,-116.205192
2258,Bokchito OK,2398,33.985913,-96.162097
2259,Bokeelia FL,4055,26.662726,-82.140064
2260,Bokoshe OK,2155,35.160925,-94.722158
2261,Bolair WV,3603,38.476362,-80.399798
2262,Bolar VA,741,38.085119,-79.807792
2263,Bolckow MO,606,40.100673,-94.884741
2264,Boles AR,545,34.765363,-94.062864
2265,Boley OK,1521,35.491328,-96.470386
2266,Boligee AL,2009,32.774646,-88.026652
2267,Bolinas CA,1638,37.907875,-122.694655
2268,Boling TX,2205,29.252874,-95.974045
2269,Bolingbrook IL,52911,41.697605,-88.087315
2270,Bolivar MO,17396,37.608502,-93.412631
2271,Bolivar NY,2747,42.070442,-78.144834
2272,Bolivar OH,5293,40.634692,-81.446356
2273,Bolivar PA,1770,40.367289,-79.160546
2274,Bolivar TN,9721,35.246082,-89.000723
2275,Bolivia IL,1246,39.77771,-89.417692
2276,Bolivia NC,6641,34.025962,-78.16814
2277,Bolt WV,784,37.767303,-81.415612
2278,Bolton CT,4986,41.768888,-72.43958
2279,Bolton Landing NY,1574,43.576641,-73.671392
2280,Bolton MA,4897,42.436523,-71.607593
2281,Bolton MS,3404,32.377751,-90.447436
2282,Bolton NC,2290,34.309085,-78.337177
2283,Bolton Valley VT,4397,44.399846,-72.993256
2284,Bombay NY,1044,44.947861,-74.594737
2285,Bomont WV,414,38.407295,-81.21999
2286,Bon Air VA,30165,37.512034,-77.565103
2287,Bon Aire PA,40371,40.862096,-79.902717
2288,Bon Ami TX,7623,30.688217,-93.927934
2289,Bon Aqua TN,6226,35.947073,-87.299564
2290,Bon Secour AL,764,30.328883,-87.721355
2291,Bon Wier TX,1411,30.687557,-93.766465
2292,Bonaire GA,15102,32.546037,-83.604736
2293,Bonanza OR,2310,42.246268,-121.333558
2294,Bonanza TX,10115,31.959201,-97.33495
2295,Bonaparte IA,938,40.714825,-91.789734
2296,Bond CO,169,39.869119,-106.676273
2297,Bondurant IA,5387,41.70166,-93.452689
2298,Bondurant WY,257,43.223798,-110.335287
2299,Bondville KY,2128,37.915078,-84.884546
2300,Bondville VT,763,43.161831,-72.912768
2301,Bone Cave TN,4112,35.743813,-85.635156
2302,Bone Gap IL,416,38.448967,-88.002491
2303,Bonesteel SD,526,43.069536,-98.987959
2304,Bonetraill ND,18371,48.167924,-103.631699
2305,Bonfield IL,1617,41.15731,-88.061854
2306,Bonham TX,14411,33.580559,-96.183566
2307,Bonifay FL,14268,30.846369,-85.689962
2308,Bonita CA,17653,32.667143,-117.022065
2309,Bonita LA,523,32.912263,-91.682158
2310,Bonne Terre MO,16014,37.931423,-90.525052
2311,Bonneau SC,6071,33.297332,-79.92164
2312,Bonner MT,1561,46.860138,-113.746254
2313,Bonnerdale AR,1616,34.349751,-93.319415
2314,Bonners Ferry ID,7437,48.730642,-116.332178
2315,Bonneville OR,1288,45.671447,-121.882411
2316,Bonney Lake WA,10461,47.188801,-122.180275
2317,Bonnie Doone NC,30909,35.084046,-78.960135
2318,Bonnie IL,1306,38.198017,-88.922884
2319,Bonnieville KY,1641,37.374141,-85.895996
2320,Bonnots Mill MO,1376,38.553282,-91.929341
2321,Bono AR,5783,35.908592,-90.784753
2322,Bono OH,1161,41.596249,-83.345536
2323,Bonsall CA,4746,33.294033,-117.18969
2324,Boody IL,252,39.762824,-89.072061
2325,Booker TX,1735,36.442948,-100.523791
2326,Boomer NC,2158,36.055192,-81.313704
2327,Boon MI,761,44.291555,-85.614383
2328,Boone CO,1071,38.264614,-104.25851
2329,Boone IA,16287,42.069354,-93.878083
2330,Boone NC,33059,36.214237,-81.666025
2331,Boones Mill VA,6141,37.13313,-79.955554
2332,Boonesville VA,926,38.253276,-78.554612
2333,Booneville AR,8701,35.136385,-93.927433
2334,Booneville IA,205,41.533987,-93.881357
2335,Booneville MS,18707,34.669431,-88.544299
2336,Boons Camp KY,560,37.821609,-82.67043
2337,Boonton NJ,15269,40.911528,-74.414035
2338,Boonville CA,1592,39.035007,-123.401954
2339,Boonville IN,13896,38.047435,-87.261994
2340,Boonville MO,11703,38.95364,-92.744973
2341,Boonville NC,5497,36.234012,-80.63569
2342,Boonville NY,5889,43.478615,-75.343973
2343,Boothbay ME,2073,43.894497,-69.627322
2344,Boothwyn PA,19997,39.833934,-75.448309
2345,Borden IN,4718,38.436171,-85.921473
2346,Bordentown NJ,17736,40.143141,-74.703249
2347,Border AK,1535,63.435022,-142.523046
2348,Bordulac ND,2850,47.453918,-99.108226
2349,Boring OR,7762,45.429704,-122.380713
2350,Boron CA,2299,35.003748,-117.662921
2351,Borrego Springs CA,3881,33.238649,-116.351394
2352,Borup MN,300,47.189641,-96.552969
2353,Boscawen NH,15524,43.285285,-71.612723
2354,Boscobel WI,5269,43.139327,-90.706101
2355,Bosque Farms NM,4755,34.876366,-106.697506
2356,Bosque NM,703,34.49956,-106.8038
2357,Boss MO,527,37.637282,-91.210905
2358,Bossier City LA,69814,32.544924,-93.703826
2359,Bostic NC,5562,35.453259,-81.81183
2360,Boston GA,3463,30.785547,-83.797085
2361,Boston KY,2067,37.763991,-85.619927
2362,Boston MA,114056,42.357603,-71.068432
2363,Boston NY,3039,42.631384,-78.73909
2364,Boston PA,5139,40.304412,-79.812844
2365,Boston TX,11518,33.462119,-94.433882
2366,Boston VA,1406,38.538241,-78.142285
2367,Boswell IN,1078,40.518021,-87.378947
2368,Boswell OK,2038,34.024475,-95.840313
2369,Boswell PA,3861,40.191807,-79.036179
2370,Bosworth MO,609,39.476692,-93.333521
